~VERSION INFORMATION
 VERS. 2.0 :CWLS Log Ascii Standard - version 2.0
 WRAP. YES :Multiple Lines per Depth
~WELL INFORMATION
#MNEMONIC .UNIT                              VALUE :DESCRIPTION
#-------------------------------------------------------------------
STRT    .ft                                   90 : Start depth
STOP    .ft                               8789.5 : Stop depth
STEP    .ft                                    0 : Step (0=none)
NULL    .ft                               -999.25 : Null value
WELL    .                            BU-564-1-1V : Well name
COMP    .                                   ADCO : Company name
FLD     .                                 buhasa : Field name
LOC     .                                        : Well location
PROV    .                                        : n/a
STAT    .                                        : State
CNTY    .                                        : County
CTRY    .                                        : Country
DATE    .                                        : Log date
UWI     .                              BU564101V : Unique Well Id
LIC     .                                        : n/a
API     .                                        : n/a
SRVC    .                                        : Service company
LONG    .DEG                           53.331030 : n/a
LATI    .DEG                           23.517034 : n/a
XWELL   .M                         738019.340000 : Surface X
YWELL   .M                        2602472.960000 : Surface Y
LAT     .                                        : Latitude
LON     .                                        : Longitude
ELEV    .m                                     0 : Surface elevation
~CURVE INFORMATION
#MNEMONIC             .UNIT               API CODE :DESCRIPTION
#-------------------------------------------------------------------
 DEPTH                .FT                          :Depth
 CALI                 .IN                          :Anonymous
 DTCORRFINAL          .US/FT                       :Sonic
 DTSCORRFINAL         .US/FT                       :Sonic
 GR                   .API                         :Gamma ray
 NPHI                 .V/V                         :Anonymous
 PHIE                 .                            :Porosity
 RHOBCORRFINAL        .G/CM3                       :Density
 SW                   .V/V                         :Anonymous
 SWQ                  .FRAC                        :Anonymous
 SXO                  .V/V                         :Anonymous
 SXOQ                 .FRAC                        :Anonymous
 SXOQ                 .                            :Water saturation
 VCL                  .V/V                         :Anonymous
 VDOL                 .V/V                         :Anonymous
 VLIM                 .V/V                         :Anonymous
~A Log Data Section - Number of Curves = 16
# ...
     8191.00000 8.46449 88.5048 161.37 13.8999
 0.27357 0.29418 2.14802 0.06097 0.0601
 0.88365 0.57 0.57 0 0.01463
 0.69119
     8191.50000 8.45739 88.3766 161.006 13.8343
 0.26391 0.28843 2.15183 0.05245 0.0515
 0.89134 0.5526 0.5526 0 0.00696
 0.70461
     8192.00000 8.46039 87.9924 160.316 13.283
 0.25694 0.27848 2.15541 0.04441 0.0425
 0.91296 0.5318 0.5318 0 0
 0.72152
     8192.50000 8.46339 87.4441 159.151 14.9827
 0.25905 0.27605 2.15765 0.03583 0.034
 0.91308 0.5085 0.5085 0 0
 0.72395
     8193.00000 8.46458 87.1335 158.47 14.6465
 0.25875 0.27813 2.16233 0.02952 0.0284
 0.91029 0.4907 0.4907 0 0
 0.72187
     8193.50000 8.4706 86.9545 158.112 15.3384
 0.25446 0.27983 2.16894 0.02812 0.0277
 0.90092 0.4881 0.4881 0 0.00302
 0.71715
     8194.00000 8.44956 87.0684 158.247 15.0397
 0.24928 0.27809 2.17335 0.03184 0.0315
 0.88827 0.5009 0.5009 0 0.00568
 0.71623
     8194.50000 8.46185 87.3635 158.293 14.6559
 0.24706 0.27035 2.17531 0.03925 0.0379
 0.86602 0.5196 0.5196 0 0
 0.72965
     8195.00000 8.46643 87.7141 159.052 14.1218
 0.25174 0.27664 2.17234 0.04581 0.0449
 0.82026 0.5375 0.5375 0 0.00876
 0.7146
     8195.50000 8.47049 88.0423 160.211 14.1171
 0.25254 0.27798 2.16973 0.05343 0.0524
 0.84066 0.5544 0.5544 0 0.00821
 0.71381
     8196.00000 8.46253 88.3122 160.982 14.2843
 0.25561 0.27805 2.16336 0.06064 0.0588
 0.8816 0.5673 0.5673 0 0.0001
 0.72184
     8196.50000 8.46219 88.3115 160.832 14.0203
 0.26204 0.2722 2.15759 0.06917 0.0642
 0.92116 0.5774 0.5774 0 0
 0.72781
     8197.00000 8.45964 88.2319 160.512 13.4265
 0.26316 0.27543 2.15194 0.07655 0.0713
 0.90345 0.5897 0.5897 0 0
 0.72457
     8197.50000 8.4593 88.5029 160.787 14.9604
 0.26388 0.27753 2.15014 0.08665 0.0811
 0.87435 0.6051 0.6051 0 0
 0.72247
     8198.00000 8.46569 88.8123 161.181 15.9858
 0.25279 0.28204 2.1528 0.09529 0.0924
 0.84958 0.6211 0.6211 0 0.0013
 0.71665
     8198.50000 8.47964 88.7048 161.958 16.3758
 0.25669 0.27469 2.15734 0.11056 0.104
 0.8468 0.6359 0.6359 0 0
 0.72531
     8199.00000 8.48559 89.512 162.398 15.949
 0.25404 0.28125 2.15547 0.10993 0.1063
 0.84209 0.6387 0.6387 0 0.00264
 0.71611
     8199.50000 8.48196 89.6443 162.958 15.8526
 0.26315 0.27768 2.1529 0.10672 0.1002
 0.88028 0.6312 0.6312 0 0
 0.72232
     8200.00000 8.46772 89.5793 164.024 16.9557
 0.27216 0.28922 2.1467 0.09308 0.0898
 0.88802 0.6175 0.6175 0 0.00566
 0.70512
     8200.50000 8.4651 89.4645 164.027 16.6715
 0.27478 0.29201 2.14509 0.08313 0.0807
 0.89539 0.6045 0.6045 0 0.00852
 0.69947
     8201.00000 8.46039 89.4325 164.031 16.4391
 0.26177 0.30076 2.14242 0.07201 0.0734
 0.87775 0.5931 0.5931 0.01479 0.02424
 0.66021
     8201.50000 8.46698 89.1369 163.556 14.8721
 0.24985 0.29726 2.1421 0.06589 0.0675
 0.88337 0.5833 0.5833 0.00225 0.01562
 0.68487
     8202.00000 8.46235 88.7967 163.15 14.1196
 0.25252 0.29526 2.142 0.06209 0.0627
 0.89108 0.5748 0.5748 0 0.01082
 0.69392
     8202.50000 8.45991 88.6962 162.891 13.6147
 0.26846 0.28306 2.1422 0.06091 0.0575
 0.91483 0.5648 0.5648 0 0
 0.71694
     8203.00000 8.46824 88.3322 161.957 14.2822
 0.27555 0.28749 2.14037 0.05758 0.0547
 0.89829 0.5592 0.5592 0 0
 0.71251
     8203.50000 8.46659 88.1407 161.493 15.3227
 0.27396 0.28745 2.14256 0.05622 0.0536
 0.86908 0.5571 0.5571 0 0
 0.71255
     8204.00000 8.45901 88.3568 161.214 16.2173
 0.26344 0.28954 2.14792 0.0547 0.0537
 0.84245 0.5572 0.5572 0 0.00888
 0.70158
     8204.50000 8.46557 88.4576 160.703 16.177
 0.26391 0.28641 2.15341 0.05355 0.0523
 0.83232 0.5542 0.5542 0 0.00902
 0.70457
     8205.00000 8.45568 88.3101 160.444 16.3405
 0.2578 0.28784 2.15711 0.05014 0.0499
 0.83395 0.5491 0.5491 0.00495 0.01517
 0.69204
     8205.50000 8.45097 88.1186 160.132 17.1469
 0.25998 0.27772 2.16039 0.0477 0.0457
 0.8505 0.5394 0.5394 0 0
 0.72228
     8206.00000 8.45782 88.4429 159.626 16.8303
 0.26272 0.27768 2.16155 0.04209 0.0402
 0.84822 0.5259 0.5259 0 0
 0.72232
     8206.50000 8.45474 88.2752 158.947 16.0071
 0.26936 0.27836 2.16061 0.03598 0.0341
 0.83966 0.5089 0.5089 0 0
 0.72164
     8207.00000 8.45568 87.9205 159.017 15.1085
 0.26419 0.28025 2.16249 0.03062 0.0295
 0.82929 0.4944 0.4944 0 0.00412
 0.71563
     8207.50000 8.4651 87.9511 159.532 14.6398
 0.25269 0.27318 2.1667 0.02895 0.0277
 0.84105 0.4882 0.4882 0 0
 0.72682
     8208.00000 8.4651 88.0831 159.659 15.7611
 0.24994 0.26471 2.17381 0.03169 0.0297
 0.82412 0.4949 0.4949 0 0
 0.73529
     8208.50000 8.45285 88.2005 160.011 15.3865
 0.24624 0.26579 2.17674 0.037 0.0351
 0.81977 0.5118 0.5118 0 0
 0.73421
     8209.00000 8.46463 88.1913 159.841 16.5878
 0.24473 0.26171 2.1783 0.04497 0.0421
 0.8212 0.5308 0.5308 0 0
 0.73829
     8209.50000 8.45568 88.1315 159.879 16.3424
 0.24865 0.26576 2.17487 0.05192 0.049
 0.84067 0.547 0.547 0 0
 0.73424
     8210.00000 8.46209 88.6089 159.596 16.3918
 0.26066 0.26929 2.16809 0.05859 0.0546
 0.82741 0.5591 0.5591 0 0
 0.73071
     8210.50000 8.46014 88.2953 159.086 16.4257
 0.27038 0.27788 2.15905 0.06274 0.0591
 0.82221 0.568 0.568 0 0.00111
 0.721
     8211.00000 8.4681 87.9598 159.566 16.9508
 0.26399 0.28243 2.15068 0.06638 0.0635
 0.7964 0.5762 0.5762 0 0.00332
 0.71426
     8211.50000 8.46589 87.6922 159.962 18.4668
 0.25197 0.28199 2.14978 0.07103 0.0688
 0.77223 0.5855 0.5855 0 0.00361
 0.7144
     8212.00000 8.46632 87.6365 160.721 18.3749
 0.24678 0.28079 2.15417 0.0767 0.0749
 0.76757 0.5955 0.5955 0 0.00596
 0.71325
     8212.50000 8.46039 87.6275 160.676 16.8947
 0.24604 0.28016 2.15784 0.08546 0.0836
 0.7974 0.6088 0.6088 0 0.0063
 0.71354
     8213.00000 8.4651 87.5028 160.96 14.8755
 0.25716 0.28374 2.15753 0.09248 0.0904
 0.80973 0.6183 0.6183 0 0.0114
 0.70486
     8213.50000 8.45747 87.4428 160.66 14.3617
 0.26368 0.28014 2.15672 0.09976 0.095
 0.82347 0.6246 0.6246 0 0.00358
 0.71628
     8214.00000 8.45961 87.3444 159.762 14.4265
 0.27121 0.28262 2.15504 0.09676 0.092
 0.81894 0.6206 0.6206 0 0.00651
 0.71087
     8214.50000 8.46339 86.6907 159.355 15.1825
 0.25272 0.28914 2.15354 0.08352 0.0835
 0.80241 0.6086 0.6086 0.00689 0.01809
 0.68589
     8215.00000 8.45686 86.9437 158.765 15.3397
 0.24901 0.27781 2.1594 0.06998 0.0678
 0.8203 0.5838 0.5838 0 0.00138
 0.7208
     8215.50000 8.45097 86.2896 158.653 15.0637
 0.24668 0.27332 2.16567 0.0606 0.0584
 0.82423 0.5666 0.5666 0 0
 0.72668
     8216.00000 8.45851 86.6057 158.564 15.753
 0.24737 0.26409 2.17105 0.05188 0.0484
 0.83469 0.5457 0.5457 0 0
 0.73591
     8216.50000 8.4651 87.0918 158.896 15.9982
 0.25424 0.26563 2.1706 0.0455 0.0423
 0.81648 0.5313 0.5313 0 0
 0.73437
     8217.00000 8.45662 87.8695 158.834 16.7917
 0.25173 0.26942 2.1649 0.04449 0.0419
 0.78619 0.5301 0.5301 0 0
 0.73058
     8217.50000 8.4472 87.8925 159.736 14.8044
 0.25802 0.27012 2.1606 0.0479 0.0446
 0.76833 0.5368 0.5368 0 0
 0.72988
     8218.00000 8.44704 88.106 159.809 14.0779
 0.25401 0.2721 2.15609 0.052 0.0487
 0.76984 0.5465 0.5465 0 0
 0.7279
     8218.50000 8.44497 88.2339 159.857 14.2181
 0.25582 0.26877 2.15583 0.05597 0.0516
 0.77805 0.5527 0.5527 0 0
 0.73123
     8219.00000 8.45034 87.958 159.41 14.4233
 0.26188 0.27012 2.15692 0.05288 0.0487
 0.78747 0.5464 0.5464 0 0
 0.72988
     8219.50000 8.44536 87.0822 158.308 14.2176
 0.26151 0.2739 2.15896 0.04828 0.0453
 0.79435 0.5386 0.5386 0 0
 0.7261
     8220.00000 8.45097 87.0041 157.543 13.5776
 0.25981 0.27189 2.16475 0.04707 0.0443
 0.80553 0.536 0.536 0 0
 0.72811
     8220.50000 8.45568 86.9005 156.606 14.3119
 0.24581 0.26673 2.17424 0.05122 0.0487
 0.79884 0.5463 0.5463 0 0
 0.73327
     8221.00000 8.4544 87.1256 156.715 14.2455
 0.23597 0.2646 2.17871 0.05908 0.0567
 0.76448 0.5633 0.5633 0 0
 0.7354
     8221.50000 8.46241 87.2895 156.748 13.756
 0.22983 0.26577 2.1767 0.06822 0.0662
 0.73043 0.5809 0.5809 0 0.00124
 0.73299
     8222.00000 8.45097 86.853 157.531 13.9068
 0.2334 0.26404 2.16849 0.08692 0.0821
 0.72927 0.6066 0.6066 0 0
 0.73596
     8222.50000 8.45097 87.1909 157.922 14.2954
 0.23973 0.26204 2.16281 0.10729 0.0987
 0.7572 0.6292 0.6292 0 0
 0.73796
