~VERSION INFORMATION
 VERS. 2.0 :CWLS Log Ascii Standard - version 2.0
 WRAP. YES :Multiple Lines per Depth
~WELL INFORMATION
#MNEMONIC .UNIT                              VALUE :DESCRIPTION
#-------------------------------------------------------------------
STRT    .ft                                   90 : Start depth
STOP    .ft                               8789.5 : Stop depth
STEP    .ft                                    0 : Step (0=none)
NULL    .ft                               -999.25 : Null value
WELL    .                            BU-564-1-1V : Well name
COMP    .                                   ADCO : Company name
FLD     .                                 buhasa : Field name
LOC     .                                        : Well location
PROV    .                                        : n/a
STAT    .                                        : State
CNTY    .                                        : County
CTRY    .                                        : Country
DATE    .                                        : Log date
UWI     .                              BU564101V : Unique Well Id
LIC     .                                        : n/a
API     .                                        : n/a
SRVC    .                                        : Service company
LONG    .DEG                           53.331030 : n/a
LATI    .DEG                           23.517034 : n/a
XWELL   .M                         738019.340000 : Surface X
YWELL   .M                        2602472.960000 : Surface Y
LAT     .                                        : Latitude
LON     .                                        : Longitude
ELEV    .m                                     0 : Surface elevation
~CURVE INFORMATION
#MNEMONIC             .UNIT               API CODE :DESCRIPTION
#-------------------------------------------------------------------
 DEPTH                .FT                          :Depth
 CALI                 .IN                          :Anonymous
 DTCORRFINAL          .US/FT                       :Sonic
 DTSCORRFINAL         .US/FT                       :Sonic
 GR                   .API                         :Gamma ray
 NPHI                 .V/V                         :Anonymous
 PHIE                 .                            :Porosity
 RHOBCORRFINAL        .G/CM3                       :Density
 SW                   .V/V                         :Anonymous
 SWQ                  .FRAC                        :Anonymous
 SXO                  .V/V                         :Anonymous
 SXOQ                 .FRAC                        :Anonymous
 SXOQ                 .                            :Water saturation
 VCL                  .V/V                         :Anonymous
 VDOL                 .V/V                         :Anonymous
 VLIM                 .V/V                         :Anonymous
~A Log Data Section - Number of Curves = 16
# ...
     8097.00000 -999.25 89.4748 196.181 52.9055
 0.4167 -999.25 2.6185 -999.25 -999.25
 -999.25 -999.25 -999.25 -999.25 -999.25
 -999.25
     8097.50000 -999.25 89.4235 196.077 52.861
 0.37805 -999.25 2.61873 -999.25 -999.25
 -999.25 -999.25 -999.25 -999.25 -999.25
 -999.25
     8098.00000 -999.25 88.7843 194.634 51.8152
 0.35875 -999.25 2.62113 -999.25 -999.25
 -999.25 -999.25 -999.25 -999.25 -999.25
 -999.25
     8098.50000 -999.25 88.8524 194.796 51.3595
 0.36633 -999.25 2.62071 -999.25 -999.25
 -999.25 -999.25 -999.25 -999.25 -999.25
 -999.25
     8099.00000 -999.25 89.0341 195.2 51.453
 0.42479 -999.25 2.61995 -999.25 -999.25
 -999.25 -999.25 -999.25 -999.25 -999.25
 -999.25
     8099.50000 -999.25 89.1394 195.434 51.8033
 0.41047 -999.25 2.6196 -999.25 -999.25
 -999.25 -999.25 -999.25 -999.25 -999.25
 -999.25
     8100.00000 -999.25 89.122 195.396 51.7525
 0.4003 -999.25 2.61966 -999.25 -999.25
 -999.25 -999.25 -999.25 -999.25 -999.25
 -999.25
     8100.50000 -999.25 89.2998 195.831 52.9296
 0.36458 -999.25 2.61935 -999.25 -999.25
 -999.25 -999.25 -999.25 -999.25 -999.25
 -999.25
     8101.00000 -999.25 89.0017 195.128 51.3471
 0.41397 -999.25 2.62005 -999.25 -999.25
 -999.25 -999.25 -999.25 -999.25 -999.25
 -999.25
     8101.50000 -999.25 88.9805 195.081 51.2752
 0.453 -999.25 2.62012 -999.25 -999.25
 -999.25 -999.25 -999.25 -999.25 -999.25
 -999.25
     8102.00000 -999.25 88.4643 193.932 49.5544
 0.47609 -999.25 2.62183 -999.25 -999.25
 -999.25 -999.25 -999.25 -999.25 -999.25
 -999.25
     8102.50000 -999.25 88.0165 192.936 48.0468
 0.41564 -999.25 2.62332 -999.25 -999.25
 -999.25 -999.25 -999.25 -999.25 -999.25
 -999.25
     8103.00000 -999.25 87.2982 191.338 45.5928
 0.42273 -999.25 2.62572 -999.25 -999.25
 -999.25 -999.25 -999.25 -999.25 -999.25
 -999.25
     8103.50000 -999.25 87.4028 191.571 45.9521
 0.43999 -999.25 2.62537 -999.25 -999.25
 -999.25 -999.25 -999.25 -999.25 -999.25
 -999.25
     8104.00000 -999.25 89.4512 196.128 52.8268
 0.49397 -999.25 2.61858 -999.25 -999.25
 -999.25 -999.25 -999.25 -999.25 -999.25
 -999.25
     8104.50000 -999.25 92.459 202.826 62.3698
 0.53133 -999.25 2.60892 -999.25 -999.25
 -999.25 -999.25 -999.25 -999.25 -999.25
 -999.25
     8105.00000 12.3098 95.6167 209.865 71.7422
 0.55351 -999.25 2.59914 -999.25 -999.25
 -999.25 -999.25 -999.25 -999.25 -999.25
 -999.25
     8105.50000 12.9599 96.0728 210.882 73.0451
 0.49928 -999.25 2.59776 -999.25 -999.25
 -999.25 -999.25 -999.25 -999.25 -999.25
 -999.25
     8106.00000 12.6839 94.6188 207.659 68.861
 0.39295 -999.25 2.60223 -999.25 -999.25
 -999.25 -999.25 -999.25 -999.25 -999.25
 -999.25
     8106.50000 11.8447 87.1892 186.984 59.8747
 0.29581 -999.25 2.6231 -999.25 -999.25
 -999.25 -999.25 -999.25 -999.25 -999.25
 -999.25
     8107.00000 11.8076 83.2888 169.8 50.1679
 0.24125 -999.25 2.6151 -999.25 -999.25
 -999.25 -999.25 -999.25 -999.25 -999.25
 -999.25
     8107.50000 11.7843 69.1083 133.637 33.3035
 0.22058 -999.25 2.36462 -999.25 -999.25
 -999.25 -999.25 -999.25 -999.25 -999.25
 -999.25
     8108.00000 11.7737 70.4917 136.504 24.2392
 0.22809 -999.25 2.36357 -999.25 -999.25
 -999.25 -999.25 -999.25 -999.25 -999.25
 -999.25
     8108.50000 11.7748 70.4855 133.439 17.7684
 0.23104 -999.25 2.36251 -999.25 -999.25
 -999.25 -999.25 -999.25 -999.25 -999.25
 -999.25
     8109.00000 11.7927 69.4805 132.883 15.2575
 0.22509 -999.25 2.36146 -999.25 -999.25
 -999.25 -999.25 -999.25 -999.25 -999.25
 -999.25
     8109.50000 11.8056 69.9358 131.7 13.3065
 0.20775 -999.25 2.3633 -999.25 -999.25
 -999.25 -999.25 -999.25 -999.25 -999.25
 -999.25
     8110.00000 11.8066 69.4905 129.887 13.2117
 0.20363 0.21156 2.33401 0.18955 0.1865
 0.6581 0.5947 0.5947 0.02549 0.03586
 0.72709
     8110.50000 11.8278 69.6628 130.744 12.5115
 0.19556 0.20588 2.342 0.18719 0.1843
 0.65245 0.5913 0.5913 0.02047 0.03296
 0.74069
     8111.00000 11.8244 70.8749 131.285 12.6686
 0.1824 0.19578 2.36659 0.17817 0.178
 0.56739 0.5108 0.5108 0.02506 0.0357
 0.74346
     8111.50000 11.8199 71.303 134.335 12.0486
 0.15757 0.18377 2.39121 0.16451 0.1698
 0.45013 0.406 0.406 0.02416 0.03517
 0.7569
     8112.00000 11.8194 73.2465 138.88 11.4202
 0.16162 0.17939 2.39434 0.13065 0.1319
 0.47164 0.4201 0.4201 0.01941 0.03345
 0.76775
     8112.50000 11.8108 74.6927 141.625 11.4516
 0.17213 0.1932 2.36342 0.10035 0.1016
 0.50472 0.457 0.457 0.02063 0.03391
 0.75226
     8113.00000 11.8109 75.7056 141.801 10.9938
 0.19538 0.20512 2.32697 0.07365 0.0714
 0.54876 0.4909 0.4909 0.00968 0.02659
 0.75862
     8113.50000 11.8356 77.7156 146.273 11.7151
 0.19387 0.22465 2.28945 0.05026 0.051
 0.56857 0.5307 0.5307 0.01931 0.03271
 0.72333
     8114.00000 11.8411 76.2102 144.735 12.5318
 0.19983 0.22817 2.27541 0.03801 0.038
 0.63758 0.5199 0.5199 0.00843 0.02424
 0.73916
     8114.50000 11.8433 78.72 147.426 13.0946
 0.20169 0.23446 2.26498 0.03712 0.0375
 0.67389 0.5185 0.5185 0.00937 0.02454
 0.73163
     8115.00000 11.8623 79.0605 146.833 13.4141
 0.20962 0.23001 2.26842 0.04947 0.0484
 0.68087 0.5458 0.5458 0.0046 0.02038
 0.74501
     8115.50000 11.8775 80.1679 147.271 13.1592
 0.21475 0.23034 2.28276 0.0696 0.0691
 0.6642 0.586 0.586 0.02328 0.03534
 0.71104
     8116.00000 11.7901 80.7482 149.855 13.3085
 0.20941 0.23579 2.28754 0.08974 0.0929
 0.64853 0.6092 0.6092 0.04208 0.04937
 0.67276
     8116.50000 11.7437 83.4047 144.551 13.3106
 0.21619 0.24079 2.26966 0.10396 0.1055
 0.6616 0.6184 0.6184 0.03256 0.04126
 0.68539
     8117.00000 11.7287 83.8466 146.437 13.5247
 0.22645 0.25436 2.22572 0.11941 0.1184
 0.71018 0.6526 0.6526 0.01349 0.02556
 0.70659
     8117.50000 11.7075 85.3011 149.711 13.8088
 0.24308 0.26206 2.19359 0.13348 0.1271
 0.75944 0.662 0.662 0 0.00844
 0.7295
     8118.00000 11.7094 86.1321 153.373 13.8492
 0.25263 0.2883 2.16148 0.12639 0.1266
 0.76071 0.6615 0.6615 0.01416 0.02789
 0.66966
     8118.50000 11.6772 86.4262 152.813 13.9168
 0.27605 0.30057 2.1421 0.12499 0.1241
 0.72784 0.6588 0.6588 0.02365 0.03679
 0.63899
     8119.00000 11.7147 86.291 157.026 14.1293
 0.28828 0.31329 2.13078 0.11436 0.1157
 0.69196 0.6496 0.6496 0.04379 0.05568
 0.58724
     8119.50000 11.663 85.8833 158.093 13.005
 0.29683 0.30746 2.13985 0.11407 0.1128
 0.67225 0.6212 0.6212 0.03689 0.05097
 0.60468
     8120.00000 11.7597 86.4626 158.951 13.7921
 0.29675 0.30864 2.14428 0.08743 0.0877
 0.68461 0.6146 0.6146 0.04798 0.05981
 0.58357
     8120.50000 11.7814 86.489 157.393 13.4989
 0.30099 0.31152 2.1521 0.07362 0.0749
 0.67565 0.5955 0.5955 0.06258 0.0737
 0.5522
     8121.00000 11.8358 85.2465 154.71 13.8819
 0.31135 0.31498 2.15537 0.05987 0.0609
 0.6767 0.5714 0.5714 0.07354 0.08336
 0.52812
     8121.50000 11.8751 82.7467 151.555 12.9427
 0.33314 0.31907 2.13895 0.04103 0.0403
 0.72742 0.5261 0.5261 0.05501 0.06845
 0.55747
     8122.00000 11.9208 82.6637 146.098 12.7774
 0.36551 0.33252 2.08543 0.02831 0.0264
 0.80359 0.4833 0.4833 0.01471 0.0309
 0.62187
     8122.50000 11.0756 81.031 145.026 14.8941
 0.37473 0.33511 2.07409 0.02372 0.0218
 0.89714 0.4651 0.4651 0 0.0138
 0.6511
     8123.00000 10.5284 79.2097 143.411 16.5943
 0.32352 0.32312 2.08451 0.0297 0.0284
 0.8507 0.4907 0.4907 0 0.00805
 0.66884
     8123.50000 8.61584 80.7997 142.069 19.0087
 0.27719 0.27866 2.15238 0.0489 0.0454
 0.84751 0.5389 0.5389 0 0
 0.72134
     8124.00000 8.54872 80.7242 143.701 19.1649
 0.23052 0.25837 2.17907 0.07301 0.0687
 0.74644 0.5853 0.5853 0 0
 0.74163
     8124.50000 8.50844 81.4762 146.253 18.4053
 0.21795 0.24642 2.20628 0.1065 0.1004
 0.75646 0.6315 0.6315 0 0
 0.75358
     8125.00000 8.50447 81.2902 147.806 16.9274
 0.21271 0.24068 2.21878 0.11651 0.1098
 0.73937 0.6429 0.6429 0 0
 0.75932
     8125.50000 8.46542 82.0966 147.837 15.6864
 0.20924 0.23732 2.22718 0.14233 0.1341
 0.73448 0.6691 0.6691 0 0
 0.76268
     8126.00000 8.46443 81.7596 145.813 15.6832
 0.22022 0.23632 2.23049 0.15069 0.1393
 0.73387 0.665 0.665 0 0
 0.76368
     8126.50000 8.47471 80.8249 145.051 16.1004
 0.22843 0.24337 2.22461 0.15088 0.141
 0.7201 0.6537 0.6537 0 0.00379
 0.75283
