~VERSION INFORMATION
 VERS. 2.0 :CWLS Log Ascii Standard - version 2.0
 WRAP. YES :Multiple Lines per Depth
~WELL INFORMATION
#MNEMONIC .UNIT                              VALUE :DESCRIPTION
#-------------------------------------------------------------------
STRT    .ft                                   90 : Start depth
STOP    .ft                               8789.5 : Stop depth
STEP    .ft                                    0 : Step (0=none)
NULL    .ft                               -999.25 : Null value
WELL    .                            BU-564-1-1V : Well name
COMP    .                                   ADCO : Company name
FLD     .                                 buhasa : Field name
LOC     .                                        : Well location
PROV    .                                        : n/a
STAT    .                                        : State
CNTY    .                                        : County
CTRY    .                                        : Country
DATE    .                                        : Log date
UWI     .                              BU564101V : Unique Well Id
LIC     .                                        : n/a
API     .                                        : n/a
SRVC    .                                        : Service company
LONG    .DEG                           53.331030 : n/a
LATI    .DEG                           23.517034 : n/a
XWELL   .M                         738019.340000 : Surface X
YWELL   .M                        2602472.960000 : Surface Y
LAT     .                                        : Latitude
LON     .                                        : Longitude
ELEV    .m                                     0 : Surface elevation
~CURVE INFORMATION
#MNEMONIC             .UNIT               API CODE :DESCRIPTION
#-------------------------------------------------------------------
 DEPTH                .FT                          :Depth
 CALI                 .IN                          :Anonymous
 DTCORRFINAL          .US/FT                       :Sonic
 DTSCORRFINAL         .US/FT                       :Sonic
 GR                   .API                         :Gamma ray
 NPHI                 .V/V                         :Anonymous
 PHIE                 .                            :Porosity
 RHOBCORRFINAL        .G/CM3                       :Density
 SW                   .V/V                         :Anonymous
 SWQ                  .FRAC                        :Anonymous
 SXO                  .V/V                         :Anonymous
 SXOQ                 .FRAC                        :Anonymous
 SXOQ                 .                            :Water saturation
 VCL                  .V/V                         :Anonymous
 VDOL                 .V/V                         :Anonymous
 VLIM                 .V/V                         :Anonymous
~A Log Data Section - Number of Curves = 16
# ...
     8444.00000 8.49611 88.2858 159.1 32.1218
 0.2565 0.28253 2.13281 0.10885 0.1089
 0.78435 0.6419 0.6419 0.00895 0
 0.70851
     8444.50000 8.48523 86.4384 158.018 34.348
 0.25255 0.27764 2.14026 0.09678 0.0966
 0.77792 0.6266 0.6266 0.01181 0
 0.71055
     8445.00000 8.48787 86.0347 157.356 33.6055
 0.24958 0.27253 2.14665 0.09032 0.0896
 0.7819 0.6172 0.6172 0.00447 0
 0.72299
     8445.50000 8.4802 85.5954 156.218 33.8395
 0.24704 0.27176 2.153 0.09461 0.0946
 0.78307 0.624 0.624 0.01095 0
 0.71729
     8446.00000 8.49337 84.369 155.117 31.5449
 0.25597 0.26694 2.1611 0.10606 0.1038
 0.77445 0.6357 0.6357 0.0043 0
 0.72876
     8446.50000 8.49291 83.8341 153.327 31.1985
 0.25785 0.2718 2.16435 0.12918 0.1288
 0.76481 0.6637 0.6637 0.02023 0.00312
 0.70484
     8447.00000 8.47923 82.6141 151.217 30.2674
 0.26473 0.27144 2.16478 0.15145 0.149
 0.74838 0.6834 0.6834 0.01882 0.00314
 0.7066
     8447.50000 8.48512 81.094 148.603 31.5591
 0.25356 0.2718 2.16666 0.17165 0.1717
 0.74193 0.703 0.703 0.02442 0.00557
 0.69821
     8448.00000 8.49198 80.2257 146.139 29.9804
 0.24675 0.26133 2.17904 0.19101 0.1876
 0.75446 0.7155 0.7155 0.00806 0
 0.73061
     8448.50000 8.50213 76.8596 140.577 27.0263
 0.22493 0.24765 2.20722 0.20484 0.2037
 0.78091 0.7274 0.7274 0 0
 0.75235
     8449.00000 8.50065 72.5553 135.344 24.0037
 0.20242 0.22382 2.23969 0.21932 0.2129
 0.79871 0.7339 0.7339 0 0
 0.77618
     8449.50000 8.50732 69.9237 129.148 24.4913
 0.17324 0.20211 2.27354 0.21702 0.2106
 0.78525 0.7323 0.7323 0 0
 0.79789
     8450.00000 8.50654 68.2072 125.539 27.3432
 0.15655 0.17663 2.30828 0.2174 0.2016
 0.77481 0.7259 0.7259 0 0
 0.82337
     8450.50000 8.49918 66.9161 123.944 31.4675
 0.12556 0.1584 2.35383 0.20039 0.1957
 0.73296 0.7216 0.7216 0 0
 0.8416
     8451.00000 8.49893 68.2681 124.496 34.2279
 0.11018 0.1441 2.39954 0.20203 0.2065
 0.67165 0.6971 0.6971 0 0
 0.8559
     8451.50000 8.49808 71.2767 128.912 34.5859
 0.12031 0.13826 2.42193 0.22518 0.2241
 0.66512 0.6623 0.6623 0.009 0
 0.85275
     8452.00000 8.50258 74.7616 136.264 31.5066
 0.14961 0.15612 2.39868 0.24327 0.2397
 0.73849 0.7114 0.7114 0.01457 0.0038
 0.8255
     8452.50000 8.49916 77.679 140.769 29.7595
 0.18089 0.18941 2.34411 0.23935 0.2413
 0.76975 0.7466 0.7466 0.02498 0.01219
 0.77342
     8453.00000 8.5053 80.3875 145.282 26.3183
 0.2031 0.21837 2.28623 0.23275 0.2363
 0.7839 0.7494 0.7494 0.01749 0.0106
 0.75354
     8453.50000 8.49572 81.3063 148.117 25.9883
 0.22596 0.24078 2.23855 0.23048 0.2318
 0.78652 0.7465 0.7465 0.01418 0.00742
 0.73761
     8454.00000 8.50043 83.9464 150.618 26.3057
 0.23531 0.25111 2.2081 0.2224 0.2207
 0.80067 0.7392 0.7392 0.00336 0
 0.74553
     8454.50000 8.50424 84.2166 152.677 26.6361
 0.23644 0.26142 2.18797 0.20505 0.2065
 0.78736 0.7294 0.7294 0.0072 0
 0.73138
     8455.00000 8.48503 84.5651 154.069 26.9469
 0.24617 0.27024 2.17525 0.18233 0.1849
 0.78098 0.7135 0.7135 0.0154 0.00574
 0.70863
     8455.50000 8.49274 84.9768 154.734 26.8673
 0.24817 0.27469 2.1658 0.15931 0.1624
 0.77811 0.6952 0.6952 0.01612 0.00631
 0.70288
     8456.00000 8.48951 85.1816 155.101 30.2499
 0.24653 0.27481 2.16258 0.14754 0.1504
 0.7828 0.6846 0.6846 0.02061 0.00466
 0.69991
     8456.50000 8.48394 85.9574 155.741 31.4296
 0.25255 0.26751 2.16766 0.13186 0.1307
 0.78685 0.6657 0.6657 0.01209 0
 0.7204
     8457.00000 8.49787 85.9111 156.348 32.8077
 0.25036 0.27065 2.1707 0.11525 0.1167
 0.77822 0.6508 0.6508 0.02733 0.00664
 0.69538
     8457.50000 8.49808 85.6868 156.723 32.4936
 0.2499 0.27153 2.17125 0.11429 0.1163
 0.7869 0.6503 0.6503 0.02837 0.00803
 0.69206
     8458.00000 8.49808 85.8753 157.09 31.9592
 0.24749 0.27158 2.16724 0.1189 0.1207
 0.79395 0.6552 0.6552 0.02214 0.00352
 0.70276
     8458.50000 8.49431 86.5051 157.336 31.5569
 0.24969 0.27064 2.16494 0.12172 0.1223
 0.80005 0.6569 0.6569 0.01573 0
 0.71363
     8459.00000 8.48667 86.4757 157.413 31.3701
 0.24985 0.27148 2.1634 0.12354 0.1243
 0.79405 0.659 0.659 0.01608 0
 0.71244
     8459.50000 8.48394 86.0758 157.449 30.2794
 0.25321 0.26639 2.17161 0.12523 0.1242
 0.8035 0.6589 0.6589 0.00974 0
 0.72388
     8460.00000 8.49808 86.1763 156.504 29.2834
 0.2539 0.26467 2.17361 0.12828 0.1265
 0.80752 0.6614 0.6614 0.00515 0
 0.73018
     8460.50000 8.49579 85.7543 156.396 27.4381
 0.25598 0.26635 2.17303 0.12927 0.1279
 0.80097 0.6628 0.6628 0.00504 0
 0.72861
     8461.00000 8.50279 84.5925 154.056 26.798
 0.25579 0.27216 2.16487 0.12907 0.1293
 0.78608 0.6642 0.6642 0.00955 0.00113
 0.71715
     8461.50000 8.49713 83.2259 152.934 28.694
 0.25 0.27327 2.16431 0.13233 0.134
 0.77477 0.669 0.669 0.01673 0.00408
 0.70592
     8462.00000 8.48921 82.1981 150.873 29.3126
 0.24514 0.27002 2.1687 0.13962 0.1412
 0.76524 0.6761 0.6761 0.01637 0.0029
 0.7107
     8462.50000 8.48748 81.5682 148.572 32.2745
 0.23505 0.26458 2.17924 0.1498 0.1524
 0.75382 0.6864 0.6864 0.02326 0.00403
 0.70813
     8463.00000 8.5001 80.3706 147.289 32.8546
 0.23195 0.25421 2.19616 0.16557 0.1657
 0.7501 0.698 0.698 0.0197 0.00071
 0.72539
     8463.50000 8.5075 79.5599 144.679 32.6074
 0.22661 0.24656 2.21278 0.18187 0.1816
 0.74783 0.7109 0.7109 0.01977 0.00153
 0.73214
     8464.00000 8.50697 78.5586 142.691 30.4908
 0.21522 0.24213 2.22386 0.20071 0.2028
 0.74289 0.7268 0.7268 0.01666 0.00227
 0.73894
     8464.50000 8.50259 76.239 139.283 28.7241
 0.21019 0.2364 2.23149 0.21947 0.2199
 0.74928 0.7352 0.7352 0.00597 0
 0.75764
     8465.00000 8.50256 74.5426 135.924 29.481
 0.20032 0.22907 2.24252 0.23201 0.2325
 0.75292 0.7415 0.7415 0.00138 0
 0.76954
     8465.50000 8.5075 71.1336 130.909 30.7646
 0.18598 0.21274 2.26534 0.24313 0.2389
 0.75823 0.7428 0.7428 0 0
 0.78726
     8466.00000 8.50811 70.2522 129.054 35.1856
 0.16167 0.19314 2.3048 0.25787 0.2564
 0.74656 0.743 0.743 0.0002 0
 0.80667
     8466.50000 8.50659 69.8187 128.307 38.6474
 0.14867 0.17237 2.35235 0.27027 0.2679
 0.70758 0.7003 0.7003 0.01346 0
 0.81417
     8467.00000 8.51221 70.2783 130.023 40.7722
 0.13923 0.15846 2.38736 0.28687 0.2858
 0.70102 0.6916 0.6916 0.0253 0
 0.81625
     8467.50000 8.50361 71.918 132.431 36.8756
 0.1454 0.16007 2.38874 0.29572 0.2938
 0.73901 0.7226 0.7226 0.02076 0.00136
 0.81781
     8468.00000 8.51221 75.286 136.745 33.0066
 0.16283 0.17295 2.36545 0.2955 0.2914
 0.80359 0.777 0.777 0.01455 0.00212
 0.81038
     8468.50000 8.49928 77.862 140.541 29.5095
 0.1859 0.19743 2.32425 0.2705 0.2709
 0.80791 0.7701 0.7701 0.0162 0.00691
 0.77946
     8469.00000 8.49981 79.6721 144.453 31.3446
 0.20457 0.21858 2.28699 0.26313 0.2659
 0.79031 0.7673 0.7673 0.02771 0.01187
 0.74185
     8469.50000 8.51127 81.0171 146.284 31.3426
 0.21542 0.23495 2.25038 0.2469 0.2499
 0.78175 0.7578 0.7578 0.02559 0.00906
 0.73039
     8470.00000 8.49729 81.1728 147.21 31.3392
 0.22514 0.24555 2.22344 0.22875 0.23
 0.78773 0.7453 0.7453 0.02029 0.00414
 0.73001
     8470.50000 8.48743 81.4092 147.221 32.916
 0.23053 0.24814 2.20421 0.21116 0.2076
 0.80904 0.7302 0.7302 0.00654 0
 0.74532
     8471.00000 8.48999 81.6646 147.482 34.0221
 0.22603 0.24616 2.20042 0.19885 0.1944
 0.81332 0.7207 0.7207 0 0
 0.75384
     8471.50000 8.49808 83.3279 148.148 36.2345
 0.20965 0.23089 2.22531 0.1986 0.193
 0.78848 0.7197 0.7197 0.00013 0
 0.76899
     8472.00000 8.49185 83.5906 148.427 35.5783
 0.19993 0.21872 2.25263 0.18801 0.1831
 0.71194 0.6885 0.6885 0.00687 0
 0.77441
     8472.50000 8.48265 83.7089 149.41 35.7908
 0.20536 0.21707 2.26965 0.19439 0.1904
 0.63699 0.6114 0.6114 0.02217 0
 0.76076
     8473.00000 8.47976 84.4148 150.681 34.9914
 0.21823 0.23035 2.24792 0.19671 0.1937
 0.6177 0.5928 0.5928 0.02606 0.00143
 0.74216
     8473.50000 8.49101 84.8452 151.521 34.8397
 0.2274 0.24704 2.21892 0.18297 0.1836
 0.62998 0.6115 0.6115 0.03327 0.00656
 0.71314
     8474.00000 8.4935 84.4575 151.357 31.6654
 0.23805 0.25809 2.20195 0.17915 0.1809
 0.6293 0.612 0.612 0.03244 0.01067
 0.6988
     8474.50000 8.48807 84.7423 151.513 28.621
 0.23463 0.25837 2.19985 0.17459 0.1772
 0.653 0.6393 0.6393 0.02484 0.00986
 0.70693
