~VERSION INFORMATION
 VERS. 2.0 :CWLS Log Ascii Standard - version 2.0
 WRAP. YES :Multiple Lines per Depth
~WELL INFORMATION
#MNEMONIC .UNIT                              VALUE :DESCRIPTION
#-------------------------------------------------------------------
STRT    .ft                                   90 : Start depth
STOP    .ft                               8789.5 : Stop depth
STEP    .ft                                    0 : Step (0=none)
NULL    .ft                               -999.25 : Null value
WELL    .                            BU-564-1-1V : Well name
COMP    .                                   ADCO : Company name
FLD     .                                 buhasa : Field name
LOC     .                                        : Well location
PROV    .                                        : n/a
STAT    .                                        : State
CNTY    .                                        : County
CTRY    .                                        : Country
DATE    .                                        : Log date
UWI     .                              BU564101V : Unique Well Id
LIC     .                                        : n/a
API     .                                        : n/a
SRVC    .                                        : Service company
LONG    .DEG                           53.331030 : n/a
LATI    .DEG                           23.517034 : n/a
XWELL   .M                         738019.340000 : Surface X
YWELL   .M                        2602472.960000 : Surface Y
LAT     .                                        : Latitude
LON     .                                        : Longitude
ELEV    .m                                     0 : Surface elevation
~CURVE INFORMATION
#MNEMONIC             .UNIT               API CODE :DESCRIPTION
#-------------------------------------------------------------------
 DEPTH                .FT                          :Depth
 CALI                 .IN                          :Anonymous
 DTCORRFINAL          .US/FT                       :Sonic
 DTSCORRFINAL         .US/FT                       :Sonic
 GR                   .API                         :Gamma ray
 NPHI                 .V/V                         :Anonymous
 PHIE                 .                            :Porosity
 RHOBCORRFINAL        .G/CM3                       :Density
 SW                   .V/V                         :Anonymous
 SWQ                  .FRAC                        :Anonymous
 SXO                  .V/V                         :Anonymous
 SXOQ                 .FRAC                        :Anonymous
 SXOQ                 .                            :Water saturation
 VCL                  .V/V                         :Anonymous
 VDOL                 .V/V                         :Anonymous
 VLIM                 .V/V                         :Anonymous
~A Log Data Section - Number of Curves = 16
# ...
     8223.00000 8.45568 88.4908 158.562 15.0241
 0.24093 0.26491 2.16066 0.12055 0.1115
 0.77043 0.6449 0.6449 0 0
 0.73509
     8223.50000 8.46387 87.6617 158.787 14.3707
 0.23983 0.26182 2.16497 0.12628 0.1161
 0.79016 0.6501 0.6501 0 0
 0.73818
     8224.00000 8.46039 87.0058 158.441 14.8529
 0.24174 0.26177 2.17059 0.12122 0.1121
 0.80537 0.6455 0.6455 0 0
 0.73823
     8224.50000 8.45568 87.2934 158.26 14.6101
 0.24279 0.26783 2.17005 0.10957 0.1038
 0.82258 0.6357 0.6357 0 0
 0.73217
     8225.00000 8.46353 87.4948 158.102 15.2227
 0.24413 0.27104 2.16644 0.09756 0.0932
 0.83993 0.6221 0.6221 0 0
 0.72896
     8225.50000 8.45299 87.5032 158.336 16.1282
 0.252 0.26541 2.16549 0.09237 0.0852
 0.86019 0.611 0.611 0 0
 0.73459
     8226.00000 8.4586 87.3881 158.287 15.9903
 0.2561 0.26728 2.16332 0.08089 0.0746
 0.85384 0.5951 0.5951 0 0
 0.73272
     8226.50000 8.45521 87.33 158.337 15.6947
 0.2648 0.26689 2.16442 0.07097 0.0648
 0.86275 0.5785 0.5785 0 0
 0.73311
     8227.00000 8.45725 87.4719 158.525 15.6356
 0.26644 0.27221 2.16429 0.05925 0.0552
 0.84627 0.5603 0.5603 0 0
 0.72779
     8227.50000 8.45147 87.1557 158.24 16.2171
 0.26374 0.27355 2.16735 0.04885 0.0462
 0.84221 0.5406 0.5406 0 0
 0.72645
     8228.00000 8.45097 87.6146 158.305 17.1877
 0.25698 0.27204 2.16865 0.04041 0.0384
 0.82409 0.521 0.521 0 0
 0.72796
     8228.50000 8.45987 87.2954 158.326 16.5466
 0.25094 0.26398 2.17538 0.03565 0.0333
 0.80444 0.5064 0.5064 0 0
 0.73602
     8229.00000 8.45162 87.8357 158.471 15.6134
 0.24858 0.2551 2.18949 0.03644 0.0335
 0.80533 0.507 0.507 0 0
 0.7449
     8229.50000 8.44835 87.9704 158.784 15.4649
 0.24582 0.25303 2.19578 0.04309 0.0398
 0.81155 0.5247 0.5247 0 0
 0.74697
     8230.00000 8.46382 87.9437 159.139 16.4419
 0.24544 0.2572 2.18814 0.05301 0.0493
 0.81251 0.5477 0.5477 0 0
 0.7428
     8230.50000 8.46188 88.0805 159.305 16.3115
 0.24765 0.27097 2.1673 0.05972 0.057
 0.77657 0.5639 0.5639 0 0
 0.72903
     8231.00000 8.47283 87.909 159.4 16.0583
 0.24966 0.27914 2.15495 0.07142 0.0691
 0.74684 0.586 0.586 0 0.00453
 0.71633
     8231.50000 8.46813 87.9098 158.846 15.3262
 0.24804 0.28198 2.15075 0.08308 0.0809
 0.74655 0.6048 0.6048 0 0.00616
 0.71187
     8232.00000 8.46681 88.1269 158.849 15.8521
 0.248 0.27547 2.15289 0.09502 0.0903
 0.76618 0.6182 0.6182 0 0
 0.72453
     8232.50000 8.46111 88.3559 159.79 16.3932
 0.24458 0.27069 2.15473 0.09869 0.0926
 0.81187 0.6213 0.6213 0 0
 0.72931
     8233.00000 8.45568 88.4114 159.49 16.8647
 0.25225 0.26705 2.15531 0.10103 0.0924
 0.84397 0.6211 0.6211 0 0
 0.73295
     8233.50000 8.46112 88.2412 159.185 16.4203
 0.25362 0.28012 2.14972 0.09661 0.0924
 0.83632 0.6211 0.6211 0 0
 0.71988
     8234.00000 8.45568 88.319 157.479 16.1262
 0.25961 0.28766 2.14563 0.09127 0.0889
 0.80389 0.6162 0.6162 0 0.00755
 0.70479
     8234.50000 8.4706 88.4142 158.001 14.8704
 0.25782 0.29038 2.14496 0.08846 0.0872
 0.77522 0.6139 0.6139 0.00286 0.01378
 0.69298
     8235.00000 8.4572 88.1696 159.59 14.8256
 0.25359 0.28347 2.15045 0.08604 0.0836
 0.77875 0.6088 0.6088 0 0.00615
 0.71038
     8235.50000 8.46227 88.0786 160.514 14.3828
 0.25001 0.27476 2.15965 0.08432 0.0806
 0.78322 0.6043 0.6043 0 0
 0.72524
     8236.00000 8.46981 89.1876 161.544 14.5917
 0.24397 0.2711 2.16912 0.08303 0.0798
 0.80074 0.6031 0.6031 0 3e-05
 0.72888
     8236.50000 8.46647 89.8253 162.803 14.5054
 0.24901 0.2673 2.17388 0.08197 0.0775
 0.81563 0.5996 0.5996 0 0
 0.7327
     8237.00000 8.46859 90.0822 163.408 14.935
 0.24829 0.2757 2.16616 0.07427 0.0721
 0.8399 0.5909 0.5909 0 0.00245
 0.72185
     8237.50000 8.45589 90.3918 163.129 15.0339
 0.25012 0.27186 2.15737 0.06617 0.0623
 0.86641 0.574 0.574 0 0
 0.72814
     8238.00000 8.46392 90.0607 162.22 15.7166
 0.25632 0.28024 2.14689 0.05588 0.0533
 0.85794 0.5563 0.5563 0 0
 0.71976
     8238.50000 8.45568 89.9104 161.678 15.9032
 0.26401 0.27705 2.14595 0.04989 0.0465
 0.86312 0.5413 0.5413 0 0
 0.72295
     8239.00000 8.46075 88.5126 160.596 17.0966
 0.27197 0.28173 2.14504 0.04557 0.0428
 0.84497 0.5324 0.5324 0 0
 0.71827
     8239.50000 8.46446 88.3648 159.686 17.383
 0.26963 0.28226 2.14671 0.04691 0.0444
 0.8091 0.5363 0.5363 0 0
 0.71774
     8240.00000 8.47175 87.8858 159.119 18.2458
 0.26768 0.2832 2.1468 0.05165 0.0491
 0.76357 0.5474 0.5474 0 0.00219
 0.71461
     8240.50000 8.46981 87.5388 158.892 17.8342
 0.25742 0.28109 2.14507 0.06037 0.0575
 0.74457 0.5649 0.5649 0 0
 0.71891
     8241.00000 8.46196 86.7585 158.886 17.3122
 0.25883 0.27639 2.14225 0.07127 0.0662
 0.7848 0.581 0.581 0 0
 0.72361
     8241.50000 8.46432 86.3494 158.663 16.3827
 0.26149 0.28055 2.13963 0.08108 0.076
 0.81015 0.5973 0.5973 0 0
 0.71945
     8242.00000 8.4651 86.0473 158.196 15.6968
 0.25812 0.28139 2.14 0.08704 0.0822
 0.82811 0.6067 0.6067 0 0
 0.71861
     8242.50000 8.46798 85.9721 158.07 15.4338
 0.25057 0.28041 2.14509 0.08831 0.0845
 0.82716 0.61 0.61 0 0
 0.71959
     8243.00000 8.45519 86.3548 157.846 15.2255
 0.24839 0.27393 2.15234 0.0915 0.0863
 0.82842 0.6127 0.6127 0 0
 0.72607
     8243.50000 8.459 86.3396 157.92 15.4381
 0.25556 0.27914 2.15686 0.09073 0.0871
 0.80128 0.6138 0.6138 0 0.00333
 0.71753
     8244.00000 8.45984 86.1116 157.798 15.9461
 0.25794 0.28182 2.16035 0.09262 0.0903
 0.77562 0.6182 0.6182 0.0026 0.01289
 0.70269
     8244.50000 8.45787 85.9722 157.82 17.1195
 0.25575 0.27587 2.16498 0.09726 0.0931
 0.77698 0.622 0.622 0 0.00627
 0.71787
     8245.00000 8.45804 86.3218 158.186 17.649
 0.25097 0.26585 2.17531 0.10172 0.0953
 0.79823 0.6249 0.6249 0 0
 0.73415
     8245.50000 8.45961 86.2406 158.607 16.9608
 0.24635 0.26362 2.18528 0.09926 0.094
 0.77545 0.6232 0.6232 0 0.00277
 0.73361
     8246.00000 8.46238 86.8778 158.742 16.1451
 0.23773 0.26109 2.19619 0.09071 0.0875
 0.774 0.6143 0.6143 0 0.00757
 0.73134
     8246.50000 8.4514 86.8743 159.122 16.6395
 0.24069 0.26 2.1986 0.07109 0.0683
 0.78322 0.5846 0.5846 0 0.00681
 0.73319
     8247.00000 8.45097 87.18 158.696 17.438
 0.24489 0.26422 2.1941 0.05831 0.0564
 0.81447 0.5627 0.5627 0 0.0078
 0.72798
     8247.50000 8.44573 87.2593 158.992 17.8728
 0.24074 0.26463 2.18521 0.04904 0.0473
 0.81976 0.5433 0.5433 0 3e-05
 0.73534
     8248.00000 8.45097 87.3421 159.218 17.9938
 0.24165 0.26516 2.17995 0.04601 0.044
 0.78882 0.5355 0.5355 0 0
 0.73484
     8248.50000 8.44835 87.9828 159.327 17.0362
 0.24677 0.26377 2.17577 0.05244 0.0492
 0.77136 0.5476 0.5476 0 0
 0.73623
     8249.00000 8.45725 88.2881 160.121 16.4274
 0.25728 0.26918 2.16867 0.06267 0.0587
 0.75889 0.5672 0.5672 0 0
 0.73082
     8249.50000 8.46317 88.2957 160.427 16.0717
 0.26122 0.27847 2.15969 0.0755 0.0722
 0.75402 0.5911 0.5911 0 0.00699
 0.71453
     8250.00000 8.46406 88.4154 160.576 16.4933
 0.26356 0.27831 2.15682 0.09727 0.0921
 0.75921 0.6206 0.6206 0 0.00448
 0.7172
     8250.50000 8.45446 88.4597 160.429 16.4018
 0.25884 0.28742 2.15323 0.11605 0.1138
 0.73923 0.6475 0.6475 0.01242 0.01967
 0.68049
     8251.00000 8.45613 88.2276 160.381 15.9414
 0.25245 0.28495 2.15273 0.12517 0.1226
 0.77321 0.6572 0.6572 0.00166 0.01128
 0.7021
     8251.50000 8.45984 88.2885 160.212 17.8118
 0.25283 0.28312 2.15138 0.12332 0.1195
 0.81036 0.6538 0.6538 0 0.00429
 0.71258
     8252.00000 8.45972 88.148 159.678 18.1776
 0.25478 0.2696 2.15938 0.12034 0.1113
 0.8513 0.6446 0.6446 0 0
 0.7304
     8252.50000 8.46039 88.1605 160.411 16.6294
 0.25945 0.27226 2.16099 0.11118 0.1036
 0.83016 0.6355 0.6355 0 0
 0.72774
     8253.00000 8.45168 88.1989 161.06 14.9602
 0.25642 0.2752 2.15985 0.10496 0.0993
 0.81294 0.6301 0.6301 0 0
 0.7248
     8253.50000 8.46491 88.2326 161.674 14.0126
 0.25438 0.27874 2.15542 0.10113 0.0968
 0.82534 0.6269 0.6269 0 0
 0.72126
     8254.00000 8.45804 88.4433 162.238 14.7269
 0.2615 0.27982 2.15273 0.10082 0.0957
 0.83202 0.6254 0.6254 0 0
 0.72018
     8254.50000 8.45611 88.7139 162.506 14.3671
 0.25693 0.2818 2.15119 0.09792 0.0941
 0.83411 0.6233 0.6233 0 0.00024
 0.71796
     8255.00000 8.45333 88.7193 163.213 14.5498
 0.26004 0.28607 2.14783 0.09575 0.0928
 0.82745 0.6216 0.6216 0 0.00489
 0.70904
