~VERSION INFORMATION
 VERS. 2.0 :CWLS Log Ascii Standard - version 2.0
 WRAP. YES :Multiple Lines per Depth
~WELL INFORMATION
#MNEMONIC .UNIT                              VALUE :DESCRIPTION
#-------------------------------------------------------------------
STRT    .ft                                   90 : Start depth
STOP    .ft                               8789.5 : Stop depth
STEP    .ft                                    0 : Step (0=none)
NULL    .ft                               -999.25 : Null value
WELL    .                            BU-564-1-1V : Well name
COMP    .                                   ADCO : Company name
FLD     .                                 buhasa : Field name
LOC     .                                        : Well location
PROV    .                                        : n/a
STAT    .                                        : State
CNTY    .                                        : County
CTRY    .                                        : Country
DATE    .                                        : Log date
UWI     .                              BU564101V : Unique Well Id
LIC     .                                        : n/a
API     .                                        : n/a
SRVC    .                                        : Service company
LONG    .DEG                           53.331030 : n/a
LATI    .DEG                           23.517034 : n/a
XWELL   .M                         738019.340000 : Surface X
YWELL   .M                        2602472.960000 : Surface Y
LAT     .                                        : Latitude
LON     .                                        : Longitude
ELEV    .m                                     0 : Surface elevation
~CURVE INFORMATION
#MNEMONIC             .UNIT               API CODE :DESCRIPTION
#-------------------------------------------------------------------
 DEPTH                .FT                          :Depth
 CALI                 .IN                          :Anonymous
 DTCORRFINAL          .US/FT                       :Sonic
 DTSCORRFINAL         .US/FT                       :Sonic
 GR                   .API                         :Gamma ray
 NPHI                 .V/V                         :Anonymous
 PHIE                 .                            :Porosity
 RHOBCORRFINAL        .G/CM3                       :Density
 SW                   .V/V                         :Anonymous
 SWQ                  .FRAC                        :Anonymous
 SXO                  .V/V                         :Anonymous
 SXOQ                 .FRAC                        :Anonymous
 SXOQ                 .                            :Water saturation
 VCL                  .V/V                         :Anonymous
 VDOL                 .V/V                         :Anonymous
 VLIM                 .V/V                         :Anonymous
~A Log Data Section - Number of Curves = 16
# ...
     8319.00000 8.4688 88.3594 161.774 16.8953
 0.25374 0.284 2.14898 0.08633 0.0839
 0.89068 0.6092 0.6092 0 0
 0.716
     8319.50000 8.4589 88.1235 161.709 17.2017
 0.2582 0.27709 2.15354 0.08686 0.0821
 0.90302 0.6066 0.6066 0 0
 0.72291
     8320.00000 8.46235 88.1014 160.742 17.4946
 0.26133 0.28137 2.15555 0.08384 0.0806
 0.89062 0.6042 0.6042 0 0.0003
 0.71833
     8320.50000 8.45568 87.9518 159.965 18.3921
 0.2705 0.2828 2.15596 0.08167 0.078
 0.86702 0.6004 0.6004 0 0.00454
 0.71266
     8321.00000 8.45757 87.8748 160.194 19.1479
 0.27206 0.29085 2.15314 0.08016 0.0786
 0.84533 0.6013 0.6013 0.01466 0.01887
 0.67562
     8321.50000 8.46072 87.8462 160.017 19.7759
 0.26523 0.29033 2.15278 0.08275 0.0817
 0.83786 0.6059 0.6059 0.01555 0.01822
 0.6759
     8322.00000 8.45882 88.1464 159.709 18.6707
 0.25501 0.28409 2.15412 0.08808 0.0861
 0.84097 0.6123 0.6123 0.00043 0.00673
 0.70876
     8322.50000 8.45202 88.111 159.715 17.7318
 0.25177 0.27349 2.15739 0.09378 0.0885
 0.86027 0.6157 0.6157 0 0
 0.72651
     8323.00000 8.45097 87.6672 159.785 17.2905
 0.25055 0.272 2.1596 0.09816 0.0925
 0.86412 0.6211 0.6211 0 0
 0.728
     8323.50000 8.44626 87.6204 158.747 18.7613
 0.24839 0.27436 2.16345 0.09825 0.0942
 0.88141 0.6235 0.6235 0 0
 0.72564
     8324.00000 8.44369 87.4774 159.129 19.6091
 0.24591 0.27638 2.16582 0.09445 0.092
 0.87807 0.6205 0.6205 0 0.00194
 0.72167
     8324.50000 8.45168 87.3916 158.758 20.8754
 0.25335 0.27544 2.16899 0.0885 0.0854
 0.8787 0.6114 0.6114 0 0.00308
 0.72148
     8325.00000 8.4476 87.5443 160.053 19.3771
 0.25786 0.28074 2.16645 0.07986 0.0781
 0.86042 0.6005 0.6005 0.00569 0.01124
 0.70232
     8325.50000 8.45133 87.7079 160.011 19.31
 0.25243 0.27799 2.16538 0.07451 0.0725
 0.85375 0.5916 0.5916 0 0.00522
 0.71679
     8326.00000 8.4562 88.1014 160.851 19.0573
 0.24356 0.27394 2.16349 0.07237 0.0699
 0.85741 0.5874 0.5874 0 0
 0.72606
     8326.50000 8.45036 88.1849 161.097 21.2244
 0.24865 0.27141 2.16169 0.075 0.071
 0.86693 0.5892 0.5892 0 0
 0.72859
     8327.00000 8.44477 88.3737 160.837 22.6921
 0.25707 0.27955 2.15526 0.07791 0.0747
 0.85774 0.5953 0.5953 0 0
 0.72045
     8327.50000 8.44626 88.3728 160.697 23.8568
 0.25951 0.28633 2.1473 0.08393 0.0816
 0.83682 0.6057 0.6057 0.01007 0.00636
 0.69725
     8328.00000 8.43877 88.3831 160.755 22.4269
 0.26316 0.28749 2.1403 0.09111 0.0876
 0.81865 0.6145 0.6145 0.00378 0.00269
 0.70605
     8328.50000 8.4402 88.3967 160.844 21.9117
 0.26254 0.28787 2.13959 0.09486 0.0913
 0.81722 0.6196 0.6196 0.00285 0.00278
 0.7065
     8329.00000 8.44524 88.4033 161.022 21.4939
 0.26466 0.28094 2.14231 0.09496 0.089
 0.83403 0.6164 0.6164 0 0
 0.71906
     8329.50000 8.44369 88.3406 161.885 21.7937
 0.26125 0.2824 2.14502 0.087 0.0828
 0.83963 0.6075 0.6075 0 0
 0.7176
     8330.00000 8.45097 88.3614 161.825 22.5369
 0.26105 0.28748 2.14578 0.08207 0.0798
 0.83276 0.6031 0.6031 0.00847 0.00674
 0.69732
     8330.50000 8.44883 88.6449 161.793 22.0841
 0.27008 0.28106 2.15152 0.08002 0.0755
 0.84774 0.5965 0.5965 0 0
 0.71894
     8331.00000 8.45058 88.5138 161.274 22.4617
 0.27322 0.28287 2.15666 0.08237 0.0785
 0.84041 0.6011 0.6011 0.0092 0.00779
 0.70014
     8331.50000 8.45097 88.3833 160.76 22.8854
 0.2752 0.28067 2.15394 0.09135 0.0857
 0.83377 0.6118 0.6118 0.00307 0.0018
 0.71446
     8332.00000 8.45097 88.1912 160.6 23.4265
 0.26056 0.2857 2.14795 0.09723 0.0941
 0.81627 0.6233 0.6233 0.01074 0.00754
 0.69602
     8332.50000 8.45906 88.0257 160.216 23.4004
 0.25762 0.28407 2.1418 0.10128 0.097
 0.8086 0.6272 0.6272 0.00059 0
 0.71534
     8333.00000 8.46304 87.9206 160.235 22.7861
 0.26008 0.27894 2.14031 0.09748 0.0909
 0.81384 0.6191 0.6191 0 0
 0.72106
     8333.50000 8.45843 87.8738 159.988 21.6925
 0.26161 0.28137 2.14004 0.09189 0.0864
 0.8143 0.6128 0.6128 0 0
 0.71863
     8334.00000 8.46039 87.641 159.727 20.2142
 0.2637 0.28379 2.14141 0.08427 0.08
 0.8195 0.6034 0.6034 0 0
 0.71621
     8334.50000 8.45825 86.3448 158.538 18.9663
 0.26384 0.28484 2.14689 0.08349 0.0802
 0.82794 0.6036 0.6036 0 0.00246
 0.71269
     8335.00000 8.45856 86.2782 158.26 18.0763
 0.27131 0.28254 2.14875 0.08853 0.0836
 0.82776 0.6087 0.6087 0 0.00017
 0.71729
     8335.50000 8.46446 86.4096 158.03 18.1642
 0.26762 0.28424 2.15171 0.08778 0.0841
 0.80514 0.6096 0.6096 0.00064 0.00726
 0.70786
     8336.00000 8.46981 86.3806 158.253 18.804
 0.25973 0.27797 2.15903 0.09221 0.0879
 0.79228 0.6149 0.6149 0 0.00373
 0.71829
     8336.50000 8.46392 86.7329 158.394 20.0837
 0.25809 0.26862 2.17052 0.09311 0.0869
 0.81275 0.6135 0.6135 0 0
 0.73138
     8337.00000 8.46706 86.8245 158.695 18.8728
 0.2536 0.26793 2.17429 0.08702 0.082
 0.83502 0.6064 0.6064 0 0
 0.73207
     8337.50000 8.46422 86.8928 158.932 17.9352
 0.25846 0.26255 2.17927 0.08671 0.0798
 0.87414 0.6032 0.6032 0 0
 0.73745
     8338.00000 8.47452 86.6129 159.085 16.0219
 0.25204 0.27232 2.1773 0.07809 0.0755
 0.85615 0.5964 0.5964 0 0.00614
 0.72154
     8338.50000 8.45982 86.6733 158.897 16.15
 0.24837 0.27785 2.17538 0.07984 0.0791
 0.83399 0.6021 0.6021 0.00403 0.01582
 0.70231
     8339.00000 8.45737 86.9225 158.953 15.1029
 0.2395 0.28767 2.16779 0.08328 0.086
 0.81337 0.6122 0.6122 0.01752 0.02888
 0.66593
     8339.50000 8.4598 86.7621 158.92 15.5662
 0.2401 0.28088 2.16545 0.09323 0.0934
 0.80718 0.6223 0.6223 0.00182 0.01379
 0.70351
     8340.00000 8.4601 86.9561 159.396 14.9527
 0.25065 0.27252 2.16604 0.10161 0.0967
 0.81405 0.6268 0.6268 0 0
 0.72748
     8340.50000 8.45568 87.1707 159.542 15.2972
 0.25821 0.27022 2.16557 0.11174 0.1041
 0.82144 0.636 0.636 0 0
 0.72978
     8341.00000 8.45945 87.3353 159.446 14.4285
 0.26109 0.27545 2.16403 0.1119 0.1059
 0.84239 0.6382 0.6382 0 0.00061
 0.72394
     8341.50000 8.45523 87.0295 159.431 15.8343
 0.26104 0.27962 2.16337 0.10762 0.1035
 0.84616 0.6354 0.6354 0 0.0068
 0.71359
     8342.00000 8.4554 86.8378 159.589 16.3892
 0.25462 0.28252 2.16317 0.10013 0.0985
 0.84048 0.6291 0.6291 0.00177 0.01218
 0.70353
     8342.50000 8.45882 86.639 159.151 16.8645
 0.2551 0.28112 2.16228 0.09446 0.0922
 0.8453 0.6207 0.6207 0 0.00854
 0.71034
     8343.00000 8.45896 86.7298 158.786 16.2629
 0.25518 0.28302 2.15944 0.08889 0.0871
 0.84798 0.6138 0.6138 0 0.00918
 0.7078
     8343.50000 8.45511 86.4563 158.766 15.6243
 0.26198 0.28263 2.15816 0.08485 0.0821
 0.8499 0.6066 0.6066 0 0.00723
 0.71014
     8344.00000 8.45978 86.2689 158.24 15.1345
 0.25681 0.2831 2.15884 0.08107 0.0793
 0.84169 0.6023 0.6023 0 0.00913
 0.70777
     8344.50000 8.46769 86.0344 157.956 13.6591
 0.24962 0.27487 2.16514 0.08161 0.0787
 0.83809 0.6015 0.6015 0 0.00014
 0.725
     8345.00000 8.47358 85.9783 157.625 14.2699
 0.23641 0.2724 2.16861 0.08214 0.0801
 0.84203 0.6036 0.6036 0 0
 0.7276
     8345.50000 8.45593 85.8698 157.552 14.3206
 0.23667 0.26372 2.17092 0.08559 0.0807
 0.87077 0.6045 0.6045 0 0
 0.73628
     8346.00000 8.46039 86.3385 157.614 15.9998
 0.23443 0.26134 2.17192 0.09234 0.0865
 0.89477 0.6129 0.6129 0 0
 0.73866
     8346.50000 8.46592 86.5284 158.097 16.7052
 0.23471 0.25385 2.17736 0.10438 0.0952
 0.89151 0.6248 0.6248 0 0
 0.74615
     8347.00000 8.46039 87.0064 158.295 18.4175
 0.23828 0.25406 2.18305 0.11326 0.1036
 0.87204 0.6355 0.6355 0 0
 0.74594
     8347.50000 8.46824 86.9971 158.292 17.6965
 0.24375 0.2559 2.18151 0.11782 0.1076
 0.86751 0.6402 0.6402 0 0
 0.7441
     8348.00000 8.45894 86.8457 157.957 16.0419
 0.25814 0.26333 2.17283 0.11168 0.1021
 0.86815 0.6335 0.6335 0 0
 0.73667
     8348.50000 8.45725 86.376 157.549 15.1399
 0.2642 0.27196 2.16542 0.09928 0.0926
 0.86192 0.6213 0.6213 0 0
 0.72804
     8349.00000 8.46589 86.0809 157.151 16.6295
 0.26856 0.27587 2.16365 0.08889 0.0836
 0.84877 0.6087 0.6087 0 5e-05
 0.72408
     8349.50000 8.45183 85.9412 157.705 18.0522
 0.25709 0.26936 2.17006 0.0861 0.0807
 0.85304 0.6045 0.6045 0 0
 0.73064
     8350.00000 8.4549 85.8663 158.403 18.4936
 0.24796 0.26511 2.17553 0.08731 0.082
 0.854 0.6065 0.6065 0 0
 0.73489
