~VERSION INFORMATION
 VERS. 2.0 :CWLS Log Ascii Standard - version 2.0
 WRAP. YES :Multiple Lines per Depth
~WELL INFORMATION
#MNEMONIC .UNIT                              VALUE :DESCRIPTION
#-------------------------------------------------------------------
STRT    .ft                                   90 : Start depth
STOP    .ft                               8789.5 : Stop depth
STEP    .ft                                    0 : Step (0=none)
NULL    .ft                               -999.25 : Null value
WELL    .                            BU-564-1-1V : Well name
COMP    .                                   ADCO : Company name
FLD     .                                 buhasa : Field name
LOC     .                                        : Well location
PROV    .                                        : n/a
STAT    .                                        : State
CNTY    .                                        : County
CTRY    .                                        : Country
DATE    .                                        : Log date
UWI     .                              BU564101V : Unique Well Id
LIC     .                                        : n/a
API     .                                        : n/a
SRVC    .                                        : Service company
LONG    .DEG                           53.331030 : n/a
LATI    .DEG                           23.517034 : n/a
XWELL   .M                         738019.340000 : Surface X
YWELL   .M                        2602472.960000 : Surface Y
LAT     .                                        : Latitude
LON     .                                        : Longitude
ELEV    .m                                     0 : Surface elevation
~CURVE INFORMATION
#MNEMONIC             .UNIT               API CODE :DESCRIPTION
#-------------------------------------------------------------------
 DEPTH                .FT                          :Depth
 CALI                 .IN                          :Anonymous
 DTCORRFINAL          .US/FT                       :Sonic
 DTSCORRFINAL         .US/FT                       :Sonic
 GR                   .API                         :Gamma ray
 NPHI                 .V/V                         :Anonymous
 PHIE                 .                            :Porosity
 RHOBCORRFINAL        .G/CM3                       :Density
 SW                   .V/V                         :Anonymous
 SWQ                  .FRAC                        :Anonymous
 SXO                  .V/V                         :Anonymous
 SXOQ                 .FRAC                        :Anonymous
 SXOQ                 .                            :Water saturation
 VCL                  .V/V                         :Anonymous
 VDOL                 .V/V                         :Anonymous
 VLIM                 .V/V                         :Anonymous
~A Log Data Section - Number of Curves = 16
# ...
     8350.50000 8.46481 86.4691 159.808 18.5574
 0.24711 0.2641 2.17548 0.0914 0.0856
 0.84595 0.6116 0.6116 0 0
 0.7359
     8351.00000 8.45632 87.5598 160.298 18.5574
 0.25726 0.26939 2.16992 0.09615 0.09
 0.8557 0.6179 0.6179 0 0
 0.73061
     8351.50000 8.46724 88.4191 161.009 19.7607
 0.26307 0.27724 2.15866 0.10041 0.0949
 0.86083 0.6244 0.6244 0 0
 0.72276
     8352.00000 8.47452 88.5365 161.779 21.3481
 0.27407 0.28331 2.15221 0.10422 0.0986
 0.87115 0.6292 0.6292 0 0.00189
 0.7148
     8352.50000 8.47923 88.6136 162.032 21.2558
 0.26799 0.28992 2.14714 0.09511 0.1015
 0.79362 0.6328 0.6328 0.0166 0.0161
 0.67738
     8353.00000 8.48009 88.8694 161.57 20.649
 0.26889 0.28179 2.14866 0.09743 0.1009
 0.81673 0.6321 0.6321 0 0.00039
 0.71782
     8353.50000 8.48477 88.7944 161.588 20.031
 0.26004 0.28647 2.14614 0.09341 0.0993
 0.81415 0.6301 0.6301 0.00279 0.00658
 0.70416
     8354.00000 8.48499 88.9193 161.775 19.7524
 0.265 0.27471 2.14822 0.09353 0.0948
 0.84088 0.6243 0.6243 0 0
 0.72529
     8354.50000 8.48394 88.6837 161.76 19.9972
 0.26251 0.2794 2.14485 0.0893 0.0921
 0.83509 0.6206 0.6206 0 0
 0.7206
     8355.00000 8.48694 88.6224 161.723 20.0449
 0.26332 0.27619 2.14461 0.08853 0.0901
 0.84002 0.6179 0.6179 0 0
 0.72381
     8355.50000 8.47452 88.4535 161.849 21.587
 0.26417 0.2856 2.14028 0.08459 0.0886
 0.8155 0.6158 0.6158 0 0
 0.7144
     8356.00000 8.47727 88.3748 161.47 21.6023
 0.26733 0.28202 2.14295 0.08448 0.0872
 0.81973 0.614 0.614 0 0
 0.71798
     8356.50000 8.47344 88.2989 161.513 21.8311
 0.27283 0.27544 2.14586 0.08673 0.0871
 0.82564 0.6137 0.6137 0 0
 0.72456
     8357.00000 8.46847 88.3695 160.966 21.5689
 0.26884 0.28032 2.14707 0.0871 0.0897
 0.81034 0.6173 0.6173 0 0
 0.71968
     8357.50000 8.46086 88.4548 161.136 21.7397
 0.2649 0.28179 2.14786 0.09053 0.0943
 0.79855 0.6235 0.6235 9e-05 0.00055
 0.71757
     8358.00000 8.45948 88.5482 161.198 22.1282
 0.25802 0.28506 2.14892 0.09367 0.0997
 0.79293 0.6306 0.6306 0.00998 0.00852
 0.69645
     8358.50000 8.46296 88.7181 161.848 21.9659
 0.25698 0.28555 2.14984 0.09724 0.1039
 0.78269 0.6358 0.6358 0.01263 0.01124
 0.69058
     8359.00000 8.46772 88.7599 161.612 21.5093
 0.26194 0.28524 2.14912 0.09953 0.1054
 0.79016 0.6377 0.6377 0.00924 0.00933
 0.69619
     8359.50000 8.47204 88.7852 161.427 20.6267
 0.26435 0.28546 2.14666 0.09971 0.105
 0.79044 0.6372 0.6372 0.00495 0.00714
 0.70245
     8360.00000 8.47217 88.6277 160.788 21.1692
 0.25904 0.28215 2.14714 0.09862 0.1034
 0.79985 0.6352 0.6352 0 0
 0.71785
     8360.50000 8.46275 88.0667 160.449 22.9397
 0.25727 0.27949 2.14949 0.09259 0.0967
 0.77821 0.6268 0.6268 0.00139 0
 0.71912
     8361.00000 8.47264 87.4528 160.308 22.9397
 0.25609 0.28044 2.15132 0.08701 0.0916
 0.7524 0.62 0.62 0.0082 0.00526
 0.7061
     8361.50000 8.47327 87.9112 160.261 21.9125
 0.26595 0.2816 2.15191 0.08053 0.0842
 0.75056 0.6096 0.6096 0.00923 0.00764
 0.70153
     8362.00000 8.48583 87.5791 160.279 21.3044
 0.26514 0.28915 2.14687 0.07506 0.0803
 0.75329 0.6039 0.6039 0.01876 0.01699
 0.6751
     8362.50000 8.47923 87.4249 159.818 21.9906
 0.27054 0.29017 2.14369 0.07398 0.0786
 0.76511 0.6013 0.6013 0.01778 0.01524
 0.67681
     8363.00000 8.49287 86.3997 158.531 23.2841
 0.26731 0.29045 2.14099 0.07518 0.08
 0.76965 0.6034 0.6034 0.01796 0.01331
 0.67828
     8363.50000 8.48281 86.3523 157.583 22.9937
 0.27001 0.28429 2.14332 0.07714 0.0802
 0.77615 0.6037 0.6037 0.00543 0.00306
 0.70722
     8364.00000 8.48517 84.2534 155.777 23.6856
 0.25665 0.28426 2.14436 0.07654 0.081
 0.77263 0.605 0.605 0.00847 0.00452
 0.70275
     8364.50000 8.48994 83.5655 154.074 23.8623
 0.25095 0.27588 2.15454 0.07662 0.0803
 0.78107 0.6039 0.6039 0 0
 0.72412
     8365.00000 8.48813 81.9245 150.824 23.9155
 0.23744 0.26561 2.17109 0.07776 0.0816
 0.7851 0.6058 0.6058 0 0
 0.73439
     8365.50000 8.4896 80.4252 148.86 23.6613
 0.24019 0.25466 2.18695 0.07848 0.0802
 0.7952 0.6038 0.6038 0 0
 0.74534
     8366.00000 8.48737 79.8625 146.919 23.7452
 0.24161 0.25559 2.19127 0.07714 0.0795
 0.77001 0.6026 0.6026 0 0
 0.74441
     8366.50000 8.48866 80.0625 146.641 23.5213
 0.23886 0.257 2.19171 0.08145 0.0848
 0.72877 0.6105 0.6105 0.003 0.00139
 0.73862
     8367.00000 8.49193 80.2348 146.626 23.0421
 0.22305 0.24899 2.20336 0.09134 0.0958
 0.68709 0.6255 0.6255 0.00054 0
 0.75046
     8367.50000 8.49305 81.5654 148.672 21.9028
 0.21846 0.23786 2.2191 0.10941 0.1123
 0.69551 0.6458 0.6458 0 0
 0.76214
     8368.00000 8.47849 82.8003 151.814 21.366
 0.22651 0.23936 2.22198 0.12586 0.1287
 0.73477 0.6637 0.6637 0 0
 0.76064
     8368.50000 8.46853 84.6669 154.442 20.8125
 0.23651 0.25276 2.21059 0.13672 0.1432
 0.76318 0.6779 0.6779 0.00427 0.00741
 0.73556
     8369.00000 8.46857 85.3833 155.575 21.8712
 0.23887 0.25499 2.19639 0.1473 0.1518
 0.78696 0.6859 0.6859 0 0
 0.74501
     8369.50000 8.474 86.3472 156.967 23.4848
 0.24109 0.25469 2.18721 0.14639 0.1483
 0.80955 0.6827 0.6827 0 0
 0.74531
     8370.00000 8.47452 86.714 157.536 24.1911
 0.25327 0.25488 2.17815 0.13794 0.1359
 0.82968 0.6709 0.6709 0 0
 0.74512
     8370.50000 8.45418 86.9703 157.999 22.2713
 0.26371 0.27062 2.16768 0.1186 0.1212
 0.80513 0.6557 0.6557 0 0
 0.72938
     8371.00000 8.45921 87.0335 158.416 21.2255
 0.27273 0.27761 2.16224 0.10894 0.1123
 0.79655 0.6458 0.6458 0.00541 0.00656
 0.71042
     8371.50000 8.46539 87.1016 158.563 20.9321
 0.26857 0.28592 2.15883 0.09873 0.1053
 0.7795 0.6375 0.6375 0.02114 0.02061
 0.67233
     8372.00000 8.45184 87.2975 158.693 22.2959
 0.26999 0.2828 2.15908 0.09279 0.0977
 0.78058 0.6281 0.6281 0.01759 0.01505
 0.68456
     8372.50000 8.46039 87.6165 158.864 22.0157
 0.25954 0.28525 2.15799 0.08659 0.0933
 0.76899 0.6222 0.6222 0.02239 0.01943
 0.67293
     8373.00000 8.46785 87.8833 159.606 22.7861
 0.25839 0.27569 2.15989 0.08532 0.089
 0.78506 0.6164 0.6164 0.00343 0.00175
 0.71913
     8373.50000 8.46609 88.0226 159.679 22.2924
 0.24708 0.27767 2.15794 0.08121 0.0865
 0.77245 0.6129 0.6129 0.00572 0.00445
 0.71217
     8374.00000 8.46008 87.8011 159.474 22.5505
 0.24942 0.27061 2.15913 0.08006 0.0829
 0.7761 0.6077 0.6077 0 0
 0.72939
     8374.50000 8.45568 88.0203 160.135 22.7533
 0.25554 0.27667 2.15695 0.07592 0.0796
 0.75931 0.6028 0.6028 0.0044 0.00282
 0.71611
     8375.00000 8.45647 88.3355 160.294 23.952
 0.26634 0.2785 2.15305 0.07436 0.077
 0.75825 0.5988 0.5988 0.00701 0.00294
 0.71156
     8375.50000 8.45934 88.6819 159.741 24.6521
 0.26902 0.28398 2.14729 0.07448 0.0778
 0.75167 0.6001 0.6001 0.01533 0.00862
 0.69206
     8376.00000 8.45908 88.5173 160.116 24.5525
 0.26409 0.28694 2.14813 0.07689 0.0818
 0.74403 0.6062 0.6062 0.02356 0.01581
 0.67368
     8376.50000 8.4706 88.4468 160.045 24.2433
 0.25242 0.28639 2.15296 0.07986 0.0867
 0.75986 0.6132 0.6132 0.02554 0.01792
 0.67015
     8377.00000 8.47052 88.4602 159.913 24.5632
 0.25168 0.27997 2.15817 0.08495 0.0907
 0.77864 0.6187 0.6187 0.0161 0.00895
 0.69497
     8377.50000 8.47809 88.5832 160.027 23.9059
 0.25155 0.27937 2.15577 0.08696 0.0923
 0.779 0.621 0.621 0.01064 0.00531
 0.70468
     8378.00000 8.47028 88.5202 160.112 23.8216
 0.26276 0.28002 2.15304 0.08979 0.0938
 0.7625 0.6229 0.6229 0.01024 0.00554
 0.7042
     8378.50000 8.46039 88.4191 160.349 22.1523
 0.26013 0.28568 2.14848 0.09412 0.1
 0.76148 0.631 0.631 0.0139 0.01209
 0.68833
     8379.00000 8.46981 88.2177 160.306 22.7851
 0.2561 0.2803 2.14847 0.10311 0.108
 0.79118 0.6407 0.6407 9e-05 0
 0.71961
     8379.50000 8.4651 88.3616 160.165 22.7297
 0.25672 0.27585 2.14811 0.11391 0.1169
 0.81244 0.651 0.651 0 0
 0.72415
     8380.00000 8.47452 88.5011 160.467 24.5844
 0.25745 0.26829 2.15119 0.12075 0.1207
 0.83199 0.6551 0.6551 0 0
 0.73171
     8380.50000 8.46182 88.511 160.409 23.2843
 0.26157 0.27643 2.14848 0.11673 0.1193
 0.82017 0.6537 0.6537 0 0
 0.72357
     8381.00000 8.46864 88.5847 159.996 23.7632
 0.25406 0.27938 2.14746 0.11297 0.1178
 0.81876 0.652 0.652 0 0
 0.72062
     8381.50000 8.47028 88.8154 160.228 22.547
 0.25674 0.28376 2.14644 0.10877 0.1148
 0.80591 0.6487 0.6487 0.00382 0.00281
 0.70961
