~VERSION INFORMATION
 VERS. 2.0 :CWLS Log Ascii Standard - version 2.0
 WRAP. YES :Multiple Lines per Depth
~WELL INFORMATION
#MNEMONIC .UNIT                              VALUE :DESCRIPTION
#-------------------------------------------------------------------
STRT    .ft                                   90 : Start depth
STOP    .ft                               8789.5 : Stop depth
STEP    .ft                                    0 : Step (0=none)
NULL    .ft                               -999.25 : Null value
WELL    .                            BU-564-1-1V : Well name
COMP    .                                   ADCO : Company name
FLD     .                                 buhasa : Field name
LOC     .                                        : Well location
PROV    .                                        : n/a
STAT    .                                        : State
CNTY    .                                        : County
CTRY    .                                        : Country
DATE    .                                        : Log date
UWI     .                              BU564101V : Unique Well Id
LIC     .                                        : n/a
API     .                                        : n/a
SRVC    .                                        : Service company
LONG    .DEG                           53.331030 : n/a
LATI    .DEG                           23.517034 : n/a
XWELL   .M                         738019.340000 : Surface X
YWELL   .M                        2602472.960000 : Surface Y
LAT     .                                        : Latitude
LON     .                                        : Longitude
ELEV    .m                                     0 : Surface elevation
~CURVE INFORMATION
#MNEMONIC             .UNIT               API CODE :DESCRIPTION
#-------------------------------------------------------------------
 DEPTH                .FT                          :Depth
 CALI                 .IN                          :Anonymous
 DTCORRFINAL          .US/FT                       :Sonic
 DTSCORRFINAL         .US/FT                       :Sonic
 GR                   .API                         :Gamma ray
 NPHI                 .V/V                         :Anonymous
 PHIE                 .                            :Porosity
 RHOBCORRFINAL        .G/CM3                       :Density
 SW                   .V/V                         :Anonymous
 SWQ                  .FRAC                        :Anonymous
 SXO                  .V/V                         :Anonymous
 SXOQ                 .FRAC                        :Anonymous
 SXOQ                 .                            :Water saturation
 VCL                  .V/V                         :Anonymous
 VDOL                 .V/V                         :Anonymous
 VLIM                 .V/V                         :Anonymous
~A Log Data Section - Number of Curves = 16
# ...
     8255.50000 8.46275 88.8032 163.266 15.1055
 0.25636 0.29299 2.14334 0.09081 0.0906
 0.84304 0.6186 0.6186 0.00031 0.01195
 0.69474
     8256.00000 8.45713 89.0206 162.68 14.889
 0.26837 0.2942 2.13964 0.08413 0.0825
 0.85717 0.6071 0.6071 0 0.00965
 0.69615
     8256.50000 8.46858 88.8837 163.213 14.3221
 0.26491 0.29324 2.13922 0.07268 0.0714
 0.85315 0.5898 0.5898 0 0.00777
 0.69899
     8257.00000 8.4608 88.8122 162.381 13.3952
 0.26955 0.28 2.14494 0.06533 0.061
 0.87845 0.5715 0.5715 0 0
 0.72
     8257.50000 8.46553 88.6559 162.187 14.5819
 0.26263 0.2799 2.14459 0.05662 0.0533
 0.88935 0.5564 0.5564 0 0
 0.7201
     8258.00000 8.46039 88.4973 161.567 15.064
 0.26589 0.27588 2.14479 0.05247 0.0484
 0.91422 0.5458 0.5458 0 0
 0.72412
     8258.50000 8.45359 87.8543 160.965 15.0971
 0.26144 0.27436 2.14625 0.05259 0.0486
 0.89678 0.5462 0.5462 0 0
 0.72564
     8259.00000 8.45882 88.2802 160.649 15.5273
 0.25469 0.26976 2.15361 0.05988 0.0553
 0.86275 0.5605 0.5605 0 0
 0.73024
     8259.50000 8.47986 88.6641 161.014 15.475
 0.25419 0.2722 2.1567 0.07072 0.0662
 0.81364 0.5811 0.5811 0 0
 0.7278
     8260.00000 8.48394 88.2584 161.533 16.946
 0.25671 0.27615 2.1578 0.08125 0.0771
 0.77559 0.599 0.599 0 0.00066
 0.72319
     8260.50000 8.46289 88.4614 161.838 17.0109
 0.26639 0.27935 2.15661 0.09473 0.0897
 0.79842 0.6174 0.6174 0 0.00395
 0.7167
     8261.00000 8.4651 88.4292 161.802 17.9169
 0.27203 0.2884 2.15221 0.09732 0.0943
 0.82836 0.6235 0.6235 0.0072 0.01469
 0.68971
     8261.50000 8.46981 88.3611 161.524 17.0245
 0.26982 0.29601 2.1454 0.09725 0.0964
 0.83352 0.6264 0.6264 0.01401 0.02244
 0.66755
     8262.00000 8.46877 88.6302 160.624 15.8132
 0.2685 0.29355 2.14286 0.09905 0.0971
 0.83281 0.6273 0.6273 0.00313 0.01458
 0.68875
     8262.50000 8.45525 88.4952 160.933 14.879
 0.27052 0.29154 2.14327 0.10288 0.0998
 0.82219 0.6308 0.6308 0 0.01169
 0.69677
     8263.00000 8.45882 88.3772 161.106 14.6136
 0.26534 0.292 2.14504 0.10465 0.1026
 0.80619 0.6342 0.6342 0.00225 0.0153
 0.69046
     8263.50000 8.45568 88.295 161.131 15.0645
 0.25925 0.29309 2.14501 0.10475 0.104
 0.7845 0.6359 0.6359 0.00802 0.01932
 0.67956
     8264.00000 8.45803 88.4445 161.223 15.3712
 0.25211 0.29398 2.14484 0.10729 0.1078
 0.78729 0.6405 0.6405 0.01026 0.02072
 0.67504
     8264.50000 8.45097 88.2148 161.439 15.4143
 0.26348 0.28957 2.14615 0.11196 0.1091
 0.81791 0.642 0.642 0 0.01083
 0.6996
     8265.00000 8.46981 88.3678 161.603 15.6206
 0.27548 0.29167 2.14408 0.10915 0.1054
 0.82944 0.6376 0.6376 0.00052 0.01187
 0.69594
     8265.50000 8.46365 88.2987 161.891 15.7401
 0.27893 0.28358 2.14692 0.10567 0.0987
 0.84792 0.6294 0.6294 0 0
 0.71642
     8266.00000 8.4651 88.291 161.559 16.4666
 0.27873 0.28479 2.14762 0.08841 0.0833
 0.84684 0.6083 0.6083 0 0.00173
 0.71347
     8266.50000 8.4651 88.1335 161.033 16.7961
 0.27023 0.28511 2.14977 0.0687 0.0658
 0.84675 0.5803 0.5803 0 0.00358
 0.71131
     8267.00000 8.46981 88.0348 160.185 17.5056
 0.26939 0.28058 2.14911 0.06032 0.0568
 0.86097 0.5634 0.5634 0 0
 0.71942
     8267.50000 8.45992 87.7817 159.319 17.3239
 0.25332 0.28318 2.14578 0.04909 0.0475
 0.83674 0.5437 0.5437 0 0
 0.71682
     8268.00000 8.47578 87.542 158.488 17.1585
 0.25175 0.2693 2.15058 0.05189 0.0479
 0.80251 0.5445 0.5445 0 0
 0.7307
     8268.50000 8.46033 87.5575 157.841 17.7503
 0.24536 0.27078 2.15038 0.0598 0.0559
 0.73091 0.5617 0.5617 0 0
 0.72922
     8269.00000 8.46039 87.3043 158.218 17.8102
 0.24233 0.26901 2.14932 0.07589 0.0705
 0.67922 0.5884 0.5884 0 0
 0.73099
     8269.50000 8.46981 87.3794 158.187 17.8541
 0.23372 0.27188 2.14608 0.08863 0.0838
 0.66668 0.6091 0.6091 0 0
 0.72812
     8270.00000 8.46894 88.2424 159.69 16.5646
 0.22986 0.26926 2.15132 0.1167 0.1102
 0.69714 0.6434 0.6434 0 0
 0.73074
     8270.50000 8.46526 88.4367 161.021 17.3389
 0.23905 0.26913 2.15758 0.14228 0.1334
 0.7343 0.6684 0.6684 0 0
 0.73087
     8271.00000 8.45202 88.993 161.732 18.2728
 0.24467 0.26624 2.16263 0.16211 0.1498
 0.80142 0.684 0.684 0 0
 0.73376
     8271.50000 8.45158 89.4455 162.136 20.2193
 0.25227 0.26925 2.16293 0.16268 0.1507
 0.8448 0.6849 0.6849 0 0
 0.73075
     8272.00000 8.46463 89.2742 162.302 18.3547
 0.25939 0.27086 2.16616 0.15221 0.1414
 0.86531 0.6762 0.6762 0 0
 0.72914
     8272.50000 8.46228 88.7647 161.916 16.7471
 0.26917 0.28118 2.16693 0.12749 0.1224
 0.84346 0.6569 0.6569 0.00317 0.01301
 0.70264
     8273.00000 8.45602 88.7963 161.943 14.8963
 0.27047 0.28365 2.16805 0.10818 0.1051
 0.81162 0.6372 0.6372 0.00902 0.02107
 0.68627
     8273.50000 8.45568 88.7327 161.541 15.4545
 0.27224 0.28421 2.1645 0.09473 0.0917
 0.81814 0.6201 0.6201 0.00712 0.01809
 0.69058
     8274.00000 8.45568 88.2294 160.503 15.7514
 0.26885 0.28955 2.15483 0.07816 0.0768
 0.81161 0.5985 0.5985 0.00965 0.01905
 0.68175
     8274.50000 8.46884 87.2079 158.66 15.751
 0.27556 0.2926 2.14791 0.06707 0.0656
 0.83171 0.5799 0.5799 0.00622 0.01603
 0.68516
     8275.00000 8.47217 87.0184 158.472 16.1656
 0.26386 0.29409 2.1509 0.06539 0.0655
 0.81594 0.5798 0.5798 0.01525 0.02361
 0.66705
     8275.50000 8.46596 86.4671 158.471 16.6326
 0.25357 0.2792 2.1688 0.07691 0.0754
 0.81714 0.5963 0.5963 0.003 0.0127
 0.7051
     8276.00000 8.46535 87.0525 159.319 16.7676
 0.24842 0.27489 2.18177 0.09014 0.0889
 0.79994 0.6163 0.6163 0.01001 0.01864
 0.69647
     8276.50000 8.45654 88.2802 159.855 17.1627
 0.25102 0.27064 2.18327 0.09989 0.0966
 0.80221 0.6266 0.6266 0.00296 0.01193
 0.71447
     8277.00000 8.4494 88.7194 161.167 17.6655
 0.26016 0.27783 2.16959 0.10622 0.1024
 0.80772 0.634 0.634 0.00462 0.0123
 0.70525
     8277.50000 8.46319 88.7418 161.786 17.5364
 0.25866 0.28322 2.15618 0.10641 0.1032
 0.81938 0.6349 0.6349 0 0.00881
 0.70797
     8278.00000 8.45175 88.5614 162.146 16.3444
 0.26418 0.28332 2.14751 0.10483 0.0999
 0.83343 0.6308 0.6308 0 7e-05
 0.71661
     8278.50000 8.4651 88.2962 162.011 14.811
 0.26054 0.27954 2.14667 0.10217 0.0962
 0.84789 0.6261 0.6261 0 0
 0.72046
     8279.00000 8.45568 88.3561 161.967 14.731
 0.27473 0.27787 2.14619 0.098 0.09
 0.8435 0.6178 0.6178 0 0
 0.72213
     8279.50000 8.45568 88.1986 161.941 15.7666
 0.26912 0.28188 2.14547 0.0931 0.0875
 0.83516 0.6143 0.6143 0 0
 0.71812
     8280.00000 8.45097 88.6454 162.011 17.1616
 0.26844 0.27577 2.1481 0.09107 0.0839
 0.84688 0.6091 0.6091 0 0
 0.72423
     8280.50000 8.46152 88.6692 161.823 18.2628
 0.26178 0.27673 2.14789 0.08615 0.0803
 0.84433 0.6039 0.6039 0 0
 0.72327
     8281.00000 8.46346 88.5465 162.006 16.9225
 0.25835 0.2807 2.14769 0.08004 0.0762
 0.8233 0.5976 0.5976 0 0
 0.7193
     8281.50000 8.45293 88.3583 161.054 16.7039
 0.25586 0.28381 2.14745 0.07396 0.0716
 0.81916 0.5901 0.5901 0 0.00175
 0.71444
     8282.00000 8.46322 88.4194 160.925 16.1265
 0.25164 0.2838 2.1485 0.06881 0.0671
 0.82969 0.5825 0.5825 0 0.00173
 0.71447
     8282.50000 8.46039 88.1769 161.641 17.6328
 0.26336 0.27537 2.15221 0.06666 0.0622
 0.85729 0.5737 0.5737 0 0
 0.72463
     8283.00000 8.4638 88.1039 161.09 18.9866
 0.26961 0.28417 2.14938 0.06193 0.0591
 0.83502 0.5681 0.5681 0 0.0025
 0.71332
     8283.50000 8.46903 88.1016 160.367 18.9433
 0.27507 0.29195 2.14731 0.05898 0.0575
 0.81736 0.5649 0.5649 0.01191 0.01635
 0.67979
     8284.00000 8.45961 87.9454 159.468 17.8296
 0.26828 0.29829 2.14587 0.05787 0.0583
 0.79832 0.5663 0.5663 0.02387 0.02887
 0.64897
     8284.50000 8.45987 87.6565 159.252 16.3095
 0.25876 0.29586 2.14771 0.06001 0.0608
 0.79926 0.5711 0.5711 0.01713 0.02541
 0.6616
     8285.00000 8.46553 87.6971 158.335 16.4202
 0.25049 0.28785 2.15441 0.06525 0.0653
 0.79607 0.5794 0.5794 0.00755 0.01672
 0.68788
     8285.50000 8.45984 87.2412 158.455 17.5113
 0.24502 0.28649 2.15958 0.07037 0.071
 0.77254 0.5892 0.5892 0.01551 0.02156
 0.67643
     8286.00000 8.46724 86.5481 157.321 16.9087
 0.25044 0.2823 2.16217 0.07824 0.0773
 0.76009 0.5993 0.5993 0.00912 0.01684
 0.69174
     8286.50000 8.44861 86.3244 157.301 16.5086
 0.26125 0.2845 2.15794 0.08418 0.0822
 0.77379 0.6067 0.6067 0.00729 0.01593
 0.69228
