~VERSION INFORMATION
 VERS. 2.0 :CWLS Log Ascii Standard - version 2.0
 WRAP. YES :Multiple Lines per Depth
~WELL INFORMATION
#MNEMONIC .UNIT                              VALUE :DESCRIPTION
#-------------------------------------------------------------------
STRT    .ft                                   90 : Start depth
STOP    .ft                               8789.5 : Stop depth
STEP    .ft                                    0 : Step (0=none)
NULL    .ft                               -999.25 : Null value
WELL    .                            BU-564-1-1V : Well name
COMP    .                                   ADCO : Company name
FLD     .                                 buhasa : Field name
LOC     .                                        : Well location
PROV    .                                        : n/a
STAT    .                                        : State
CNTY    .                                        : County
CTRY    .                                        : Country
DATE    .                                        : Log date
UWI     .                              BU564101V : Unique Well Id
LIC     .                                        : n/a
API     .                                        : n/a
SRVC    .                                        : Service company
LONG    .DEG                           53.331030 : n/a
LATI    .DEG                           23.517034 : n/a
XWELL   .M                         738019.340000 : Surface X
YWELL   .M                        2602472.960000 : Surface Y
LAT     .                                        : Latitude
LON     .                                        : Longitude
ELEV    .m                                     0 : Surface elevation
~CURVE INFORMATION
#MNEMONIC             .UNIT               API CODE :DESCRIPTION
#-------------------------------------------------------------------
 DEPTH                .FT                          :Depth
 CALI                 .IN                          :Anonymous
 DTCORRFINAL          .US/FT                       :Sonic
 DTSCORRFINAL         .US/FT                       :Sonic
 GR                   .API                         :Gamma ray
 NPHI                 .V/V                         :Anonymous
 PHIE                 .                            :Porosity
 RHOBCORRFINAL        .G/CM3                       :Density
 SW                   .V/V                         :Anonymous
 SWQ                  .FRAC                        :Anonymous
 SXO                  .V/V                         :Anonymous
 SXOQ                 .FRAC                        :Anonymous
 SXOQ                 .                            :Water saturation
 VCL                  .V/V                         :Anonymous
 VDOL                 .V/V                         :Anonymous
 VLIM                 .V/V                         :Anonymous
~A Log Data Section - Number of Curves = 16
# ...
     8607.50000 8.46824 52.8146 102.263 35.7279
 0.0098 0.01329 2.71698 1 1
 1 1 1 0.01713 0.02447
 0.94511
     8608.00000 8.47492 53.6206 103.011 35.6735
 0.00938 0.0139 2.71021 1 1
 1 1 1 0.01463 0.02104
 0.95042
     8608.50000 8.48041 52.7055 101.831 38.0421
 0.01072 0.0162 2.70456 0.77775 1
 1 1 1 0.01651 0.0201
 0.94719
     8609.00000 8.48379 52.6215 101.107 38.8171
 0.01018 0.01629 2.70251 0.70071 1
 1 1 1 0.01927 0.01952
 0.94492
     8609.50000 8.47005 52.5347 100.978 36.3574
 0.00843 0.01568 2.70065 0.68252 1
 1 1 1 0.01473 0.01781
 0.95178
     8610.00000 8.47429 52.6108 101.053 35.4558
 0.0061 0.0132 2.70359 0.7871 1
 1 1 1 0.01168 0.01704
 0.95808
     8610.50000 8.46676 52.7197 101.631 34.8141
 0.00567 0.01241 2.70368 0.83253 1
 1 1 1 0.00723 0.01602
 0.96434
     8611.00000 8.46432 52.3832 100.325 34.2236
 0.00542 0.01116 2.70812 0.99459 1
 1 1 1 0.006 0.017
 0.96584
     8611.50000 8.4711 52.1564 100.177 33.4486
 0.00541 0.01074 2.70916 1 1
 1 1 1 0.00568 0.0171
 0.96648
     8612.00000 8.46981 51.9927 99.2098 33.5309
 0.00525 0.01099 2.71224 1 1
 1 1 1 0.00688 0.0189
 0.96323
     8612.50000 8.47046 51.6787 98.3158 38.0316
 0.00621 0.01132 2.70724 1 1
 1 1 1 0.01236 0.01671
 0.95961
     8613.00000 8.47452 51.5947 98.1261 40.8198
 0.00655 0.01185 2.70154 1 1
 1 1 1 0.01511 0.0142
 0.95885
     8613.50000 8.47044 51.7358 98.1318 41.8944
 0.00496 0.01147 2.6923 1 1
 1 1 1 0.01444 0.00872
 0.96537
     8614.00000 8.48018 51.9476 99.0678 39.2492
 0.00418 0.00827 2.70819 1 1
 1 1 1 0.01174 0.01406
 0.96593
     8614.50000 8.47795 54.5732 102.623 38.3405
 0.00447 0.00863 2.72001 1 1
 1 1 1 0.0121 0.02046
 0.95881
     8615.00000 8.46981 57.7827 108.015 40.8276
 0.0116 0.01395 2.71501 1 1
 1 1 1 0.01929 0.02331
 0.94345
     8615.50000 8.47955 59.5243 110.754 37.5893
 0.02732 0.03358 2.67145 1 1
 1 1 1 0.01987 0.01862
 0.92794
     8616.00000 8.4826 61.7069 114.237 33.5959
 0.0614 0.05931 2.61406 0.96096 0.9063
 0.96863 0.915 0.915 0.01937 0.01014
 0.91117
     8616.50000 8.482 64.5702 118.412 26.9559
 0.08387 0.09375 2.55538 0.78335 0.7494
 0.85848 0.8263 0.8263 0.00512 0.05021
 0.85091
     8617.00000 8.48372 66.5517 122.089 25.3648
 0.10815 0.11728 2.50603 0.71015 0.66
 0.77404 0.7279 0.7279 0 0.0321
 0.85062
     8617.50000 8.48237 67.1372 123.781 25.1973
 0.12874 0.13582 2.46712 0.68847 0.6279
 0.78975 0.7305 0.7305 0 0.01787
 0.84631
     8618.00000 8.48866 67.6911 124.731 25.8153
 0.13766 0.15712 2.42884 0.64151 0.608
 0.78965 0.7539 0.7539 0.0024 0.02195
 0.81853
     8618.50000 8.48394 67.9484 124.818 24.2525
 0.14183 0.16525 2.40513 0.63816 0.5997
 0.80797 0.7705 0.7705 0 0
 0.83475
     8619.00000 8.48538 67.3603 123.933 23.5508
 0.13551 0.16329 2.40915 0.65875 0.6251
 0.81649 0.7874 0.7874 0 0
 0.83671
     8619.50000 8.47893 66.2623 122.4 22.996
 0.12953 0.14951 2.42476 0.71677 0.651
 0.83748 0.789 0.789 0 0
 0.85049
     8620.00000 8.48866 65.886 121.104 24.0838
 0.12303 0.14407 2.43936 0.72235 0.6661
 0.85878 0.8163 0.8163 0 0
 0.85593
     8620.50000 8.48643 65.3992 119.698 24.3463
 0.1146 0.14017 2.44609 0.70561 0.6615
 0.86135 0.8318 0.8318 0 0
 0.85983
     8621.00000 8.49337 63.3314 117.209 25.1376
 0.1038 0.13273 2.46247 0.69593 0.6675
 0.87393 0.8595 0.8595 0 0
 0.86727
     8621.50000 8.49773 61.1398 113.382 26.3108
 0.08793 0.12036 2.47649 0.71188 0.6813
 0.87421 0.8739 0.8739 0 0
 0.87964
     8622.00000 8.48699 60.0962 110.947 27.5147
 0.07076 0.10656 2.49545 0.72374 0.6981
 0.85554 0.8793 0.8793 0 0
 0.89344
     8622.50000 8.47561 58.1859 107.445 27.8298
 0.05549 0.09354 2.51836 0.73431 0.7262
 0.84105 0.8971 0.8971 0 0
 0.90646
     8623.00000 8.48447 56.6025 105.924 28.6399
 0.04132 0.07352 2.56193 0.84298 0.8461
 0.95263 0.9671 0.9671 0 0
 0.92648
     8623.50000 8.47452 56.2487 105.457 28.8743
 0.0283 0.06064 2.59611 0.96192 1
 1 1 1 0 0
 0.93936
     8624.00000 8.48866 57.3247 106.445 30.9113
 0.02694 0.05332 2.61113 1 1
 1 1 1 0 0.0148
 0.93188
     8624.50000 8.48159 60.0336 110.12 34.0074
 0.04085 0.05291 2.6209 1 1
 1 1 1 0.00789 0.03781
 0.90139
     8625.00000 8.48838 61.5233 113.602 32.1143
 0.05796 0.06329 2.61734 0.99863 1
 0.99863 1 1 0.02255 0.07808
 0.83608
     8625.50000 8.49847 64.3036 116.832 27.9932
 0.08471 0.08431 2.58611 0.97692 0.8932
 0.97692 0.8932 0.8932 0.01827 0.09082
 0.8066
     8626.00000 8.49101 67.6936 121.163 20.2223
 0.11361 0.11707 2.52812 0.75531 0.6961
 0.91387 0.8288 0.8288 0.00238 0.08184
 0.79871
     8626.50000 8.49337 70.3592 125.993 18.8577
 0.1406 0.14571 2.46603 0.64168 0.5883
 0.86943 0.7905 0.7905 0 0.06785
 0.78644
     8627.00000 8.49673 72.3229 129.905 19.0795
 0.15722 0.16429 2.41834 0.59092 0.5324
 0.86879 0.7842 0.7842 0 0.04003
 0.79568
     8627.50000 8.50122 74.8128 135.753 22.126
 0.17672 0.18563 2.37811 0.53122 0.4839
 0.83981 0.7634 0.7634 0.00229 0.04839
 0.76369
     8628.00000 8.49808 76.5436 139.066 23.4141
 0.19681 0.20384 2.33893 0.48123 0.4363
 0.8316 0.7526 0.7526 0.0055 0.04548
 0.74517
     8628.50000 8.49808 78.3702 140.648 22.6802
 0.20825 0.22477 2.3007 0.42725 0.3981
 0.81454 0.7538 0.7538 0.00972 0.06438
 0.70113
     8629.00000 8.5075 80.2689 143.327 21.2504
 0.21254 0.23292 2.27273 0.40321 0.373
 0.84177 0.7782 0.7782 0.00052 0.03331
 0.73325
     8629.50000 8.50279 80.759 144.715 18.5786
 0.21541 0.24083 2.25096 0.38773 0.359
 0.84719 0.7858 0.7858 0 0.01711
 0.74206
     8630.00000 8.49473 81.5198 145.944 17.2526
 0.216 0.23967 2.23637 0.38561 0.3479
 0.8773 0.8027 0.8027 0 0
 0.76033
     8630.50000 8.50027 81.1361 147.079 16.7772
 0.21928 0.24566 2.22652 0.3751 0.341
 0.8567 0.788 0.788 0 0
 0.75434
     8631.00000 8.49572 81.7665 147.493 17.1084
 0.2162 0.25131 2.22082 0.37049 0.3441
 0.84975 0.7941 0.7941 0 0
 0.74869
     8631.50000 8.49529 81.7099 147.365 17.5443
 0.22044 0.25075 2.2185 0.37951 0.3475
 0.84351 0.7805 0.7805 0 0
 0.74925
     8632.00000 8.49522 82.0905 147.035 18.8895
 0.22206 0.25258 2.21688 0.38609 0.3546
 0.86419 0.8007 0.8007 0 0
 0.74742
     8632.50000 8.48418 81.6516 146.998 18.9279
 0.22457 0.25059 2.22 0.39941 0.3635
 0.88027 0.8096 0.8096 0 0
 0.74941
     8633.00000 8.49337 81.546 146.01 20.2046
 0.22455 0.25454 2.21912 0.39838 0.3683
 0.88102 0.8183 0.8183 0 0
 0.74546
     8633.50000 8.48606 81.9499 146.218 20.1379
 0.22252 0.26228 2.21421 0.38495 0.3666
 0.86697 0.8182 0.8182 0 0.03287
 0.70485
     8634.00000 8.49213 82.1447 146.063 19.8755
 0.21788 0.26073 2.20992 0.37642 0.357
 0.86648 0.8138 0.8138 0 0.01263
 0.72663
     8634.50000 8.48801 82.0122 146.395 18.1914
 0.2137 0.2445 2.22211 0.384 0.3477
 0.86583 0.7983 0.7983 0 0
 0.7555
     8635.00000 8.49594 81.4318 145.366 18.0294
 0.21119 0.23579 2.24577 0.37952 0.3431
 0.81356 0.746 0.746 0 0
 0.76421
     8635.50000 8.51165 80.6417 145.061 17.9326
 0.21203 0.22987 2.2642 0.36859 0.3328
 0.76431 0.6956 0.6956 0 0
 0.77013
     8636.00000 8.50099 79.4226 143.776 17.8357
 0.20847 0.23323 2.26281 0.35185 0.3246
 0.75768 0.7008 0.7008 0 0.01592
 0.75084
     8636.50000 8.50099 78.138 141.524 17.7264
 0.2102 0.22646 2.25655 0.35972 0.3178
 0.79365 0.7163 0.7163 0 0
 0.77354
     8637.00000 8.5009 77.0032 140.302 16.6084
 0.20854 0.22975 2.25409 0.35377 0.3174
 0.79607 0.7259 0.7259 0 0
 0.77025
     8637.50000 8.50462 76.294 139.377 16.6092
 0.20234 0.22095 2.2658 0.36852 0.3258
 0.81511 0.7378 0.7378 0 0
 0.77905
     8638.00000 8.50436 75.5546 135.365 16.8794
 0.19094 0.21496 2.28728 0.37526 0.3396
 0.8089 0.7428 0.7428 0 0
 0.78504
     8638.50000 8.51692 73.4798 131.082 16.9317
 0.18435 0.20401 2.30975 0.38646 0.3471
 0.82222 0.7499 0.7499 0 0
 0.79599
     8639.00000 8.52694 72.5155 129.296 16.7539
 0.1718 0.19684 2.33026 0.38607 0.3547
 0.81549 0.7557 0.7557 0 0.0088
 0.79436
     8639.50000 8.51714 71.6831 128.046 16.746
 0.15398 0.18005 2.35973 0.40759 0.3725
 0.80627 0.748 0.748 0 0
 0.81995
     8640.00000 8.52981 71.855 129.405 16.5071
 0.15178 0.16645 2.38985 0.42817 0.3821
 0.75693 0.6865 0.6865 0 0.00493
 0.82862
     8640.50000 8.51706 72.3066 130.164 16.093
 0.16451 0.16334 2.39934 0.43097 0.3722
 0.74811 0.6551 0.6551 0 0.01238
 0.82427
