~VERSION INFORMATION
 VERS. 2.0 :CWLS Log Ascii Standard - version 2.0
 WRAP. YES :Multiple Lines per Depth
~WELL INFORMATION
#MNEMONIC .UNIT                              VALUE :DESCRIPTION
#-------------------------------------------------------------------
STRT    .ft                                   90 : Start depth
STOP    .ft                               8789.5 : Stop depth
STEP    .ft                                    0 : Step (0=none)
NULL    .ft                               -999.25 : Null value
WELL    .                            BU-564-1-1V : Well name
COMP    .                                   ADCO : Company name
FLD     .                                 buhasa : Field name
LOC     .                                        : Well location
PROV    .                                        : n/a
STAT    .                                        : State
CNTY    .                                        : County
CTRY    .                                        : Country
DATE    .                                        : Log date
UWI     .                              BU564101V : Unique Well Id
LIC     .                                        : n/a
API     .                                        : n/a
SRVC    .                                        : Service company
LONG    .DEG                           53.331030 : n/a
LATI    .DEG                           23.517034 : n/a
XWELL   .M                         738019.340000 : Surface X
YWELL   .M                        2602472.960000 : Surface Y
LAT     .                                        : Latitude
LON     .                                        : Longitude
ELEV    .m                                     0 : Surface elevation
~CURVE INFORMATION
#MNEMONIC             .UNIT               API CODE :DESCRIPTION
#-------------------------------------------------------------------
 DEPTH                .FT                          :Depth
 CALI                 .IN                          :Anonymous
 DTCORRFINAL          .US/FT                       :Sonic
 DTSCORRFINAL         .US/FT                       :Sonic
 GR                   .API                         :Gamma ray
 NPHI                 .V/V                         :Anonymous
 PHIE                 .                            :Porosity
 RHOBCORRFINAL        .G/CM3                       :Density
 SW                   .V/V                         :Anonymous
 SWQ                  .FRAC                        :Anonymous
 SXO                  .V/V                         :Anonymous
 SXOQ                 .FRAC                        :Anonymous
 SXOQ                 .                            :Water saturation
 VCL                  .V/V                         :Anonymous
 VDOL                 .V/V                         :Anonymous
 VLIM                 .V/V                         :Anonymous
~A Log Data Section - Number of Curves = 16
# ...
     8641.00000 8.50279 73.7886 131.871 15.6126
 0.17493 0.17855 2.37789 0.39231 0.3507
 0.76675 0.6859 0.6859 0 0.03766
 0.78379
     8641.50000 8.49467 75.4743 134.272 15.9484
 0.18235 0.18973 2.34894 0.36479 0.3269
 0.82185 0.7392 0.7392 0 0.02412
 0.78615
     8642.00000 8.5046 77.0871 138.516 15.5906
 0.18474 0.20427 2.32379 0.33442 0.3104
 0.8162 0.7563 0.7563 0 0.04108
 0.75464
     8642.50000 8.51032 79.5512 140.377 16.7291
 0.18719 0.20559 2.30658 0.31871 0.289
 0.83766 0.7646 0.7646 0 0.00017
 0.79425
     8643.00000 8.51012 79.8544 142.256 15.5305
 0.19258 0.20858 2.29271 0.29651 0.2645
 0.80584 0.7296 0.7296 0 0
 0.79142
     8643.50000 8.5035 80.3892 143.293 14.969
 0.18376 0.20892 2.28511 0.28267 0.254
 0.79391 0.7286 0.7286 0 0
 0.79108
     8644.00000 8.49179 80.676 144.041 14.6033
 0.18477 0.2113 2.27888 0.26658 0.2399
 0.76299 0.7018 0.7018 0 0
 0.7887
     8644.50000 8.50102 80.7458 144.538 15.973
 0.19285 0.21813 2.26779 0.24984 0.226
 0.78187 0.7185 0.7185 0 0
 0.78187
     8645.00000 8.49075 80.6276 144.319 15.873
 0.20191 0.22136 2.25762 0.24173 0.2157
 0.81366 0.7358 0.7358 0 0
 0.77864
     8645.50000 8.49023 80.5559 144.511 15.2434
 0.20369 0.22712 2.25299 0.23256 0.2116
 0.81658 0.733 0.733 0 0
 0.77288
     8646.00000 8.47849 80.9527 145.083 13.886
 0.20136 0.22728 2.25249 0.23319 0.2129
 0.79871 0.7339 0.7339 0 0
 0.77272
     8646.50000 8.48777 80.994 144.985 15.2883
 0.20213 0.22671 2.25255 0.23822 0.2165
 0.79913 0.7347 0.7347 0 0
 0.77329
     8647.00000 8.48977 80.5352 144.486 16.4306
 0.20816 0.23134 2.24031 0.2426 0.2189
 0.81806 0.738 0.738 0 0
 0.76866
     8647.50000 8.48159 80.376 144.253 17.4947
 0.21187 0.23604 2.22626 0.24979 0.224
 0.84244 0.7414 0.7414 0 0
 0.76396
     8648.00000 8.48866 79.794 142.93 17.1473
 0.20612 0.23562 2.21928 0.26285 0.2344
 0.83168 0.7482 0.7482 0 0
 0.76438
     8648.50000 8.48748 78.4256 140.993 16.3019
 0.20086 0.22824 2.23016 0.28501 0.251
 0.83681 0.7585 0.7585 0 0
 0.77176
     8649.00000 8.49 76.499 138.601 15.6873
 0.19876 0.22175 2.25171 0.30658 0.2704
 0.81381 0.7394 0.7394 0 0
 0.77825
     8649.50000 8.49269 76.4791 138.238 15.5587
 0.19006 0.21489 2.27385 0.33195 0.2966
 0.82778 0.7574 0.7574 0 0
 0.78511
     8650.00000 8.50615 75.9832 135.935 15.7752
 0.17771 0.20828 2.287 0.3555 0.3201
 0.83963 0.776 0.776 0 0
 0.79172
     8650.50000 8.5075 75.0986 134.113 15.2166
 0.16971 0.19891 2.29656 0.3837 0.3386
 0.89037 0.8053 0.8053 0 0
 0.80109
     8651.00000 8.50387 73.5551 131.891 13.8402
 0.16768 0.19014 2.30631 0.4086 0.3498
 0.89866 0.8088 0.8088 0 0
 0.80986
     8651.50000 8.50687 72.0541 128.446 14.4627
 0.16187 0.18193 2.3286 0.4252 0.3643
 0.85104 0.7664 0.7664 0 0
 0.81807
     8652.00000 8.50238 69.5082 126.41 16.5272
 0.15354 0.17019 2.35722 0.45405 0.3876
 0.83606 0.7502 0.7502 0 0
 0.82981
     8652.50000 8.50226 68.4761 124.781 18.0039
 0.13848 0.15837 2.39002 0.49319 0.4285
 0.78413 0.7141 0.7141 0 0
 0.84163
     8653.00000 8.5083 68.5544 123.041 19.2669
 0.13103 0.14998 2.42135 0.54677 0.4865
 0.81499 0.7451 0.7451 0 0
 0.85002
     8653.50000 8.49595 69.5034 125.234 19.7642
 0.13376 0.1511 2.43166 0.54085 0.5282
 0.78356 0.7715 0.7715 0 0.01956
 0.82934
     8654.00000 8.50663 72.0992 129.781 18.1049
 0.14908 0.16445 2.41153 0.53356 0.5233
 0.82764 0.8134 0.8134 0 0.03303
 0.80251
     8654.50000 8.5075 75.2168 132.718 17.4327
 0.17009 0.1876 2.36127 0.4935 0.4811
 0.87721 0.8576 0.8576 0 0.02274
 0.78966
     8655.00000 8.4918 78.0057 137.896 17.7181
 0.18779 0.21043 2.31267 0.46478 0.4527
 0.8751 0.8534 0.8534 0 0.01249
 0.77708
     8655.50000 8.48933 81.1249 142.703 18.2031
 0.19978 0.22473 2.27875 0.44512 0.4305
 0.85959 0.8366 0.8366 0 0
 0.77527
     8656.00000 8.47708 81.5993 146.499 18.434
 0.20813 0.23446 2.25315 0.42624 0.409
 0.83522 0.8099 0.8099 0 0
 0.76554
     8656.50000 8.47666 82.0385 148.234 17.3368
 0.22669 0.24456 2.23063 0.40183 0.38
 0.84032 0.8031 0.8031 0 0
 0.75544
     8657.00000 8.48148 82.8147 149.344 15.1952
 0.24124 0.25539 2.2103 0.37794 0.3568
 0.83054 0.7902 0.7902 0 0
 0.74461
     8657.50000 8.47883 83.1344 150.734 14.681
 0.24996 0.26064 2.20959 0.36354 0.3459
 0.78194 0.7447 0.7447 0 0.01002
 0.72933
     8658.00000 8.48619 82.8868 151.319 14.8108
 0.2453 0.26188 2.21723 0.36107 0.3507
 0.75027 0.7258 0.7258 0 0.03984
 0.69828
     8658.50000 8.4896 83.3899 151.405 14.9479
 0.24895 0.27079 2.21553 0.35369 0.3537
 0.76702 0.758 0.758 0.00387 0.09572
 0.62962
     8659.00000 8.48218 84.7186 151.634 14.412
 0.25168 0.27058 2.20492 0.36226 0.3559
 0.81504 0.7959 0.7959 0 0.06114
 0.66827
     8659.50000 8.48888 85.019 152.187 14.5359
 0.24738 0.27821 2.19522 0.36137 0.3628
 0.80668 0.8031 0.8031 0 0.0784
 0.6434
     8660.00000 8.48892 85.0099 152.592 14.9575
 0.24042 0.27038 2.20146 0.38111 0.3766
 0.79679 0.7846 0.7846 0 0.03973
 0.68989
     8660.50000 8.49275 84.2547 151.685 15.4453
 0.23038 0.26675 2.21038 0.39525 0.3944
 0.79226 0.7876 0.7876 0 0.04008
 0.69316
     8661.00000 8.48551 84.5063 151.973 16.6366
 0.2299 0.25987 2.21532 0.41275 0.4036
 0.83014 0.8125 0.8125 0 0.01087
 0.72926
     8661.50000 8.49007 84.7302 151.921 16.7428
 0.2391 0.26215 2.21377 0.41262 0.4012
 0.8455 0.8219 0.8219 0 0.02031
 0.71753
     8662.00000 8.48394 85.3036 152.128 16.1159
 0.23692 0.25935 2.21268 0.42013 0.4045
 0.8598 0.8302 0.8302 0 0
 0.74065
     8662.50000 8.47923 85.6495 151.491 15.7755
 0.23123 0.25585 2.21321 0.42968 0.411
 0.86275 0.832 0.832 0 0
 0.74415
     8663.00000 8.47991 85.6748 150.598 15.7652
 0.21712 0.24599 2.22634 0.4511 0.4295
 0.85796 0.8293 0.8293 0 0
 0.75401
     8663.50000 8.48616 85.605 151.3 16.3166
 0.2157 0.23745 2.24006 0.47502 0.4447
 0.87283 0.8333 0.8333 0 0
 0.76255
     8664.00000 8.48358 86.0955 151.562 15.6466
 0.22351 0.2432 2.24788 0.47609 0.4558
 0.85766 0.8256 0.8256 0 0
 0.7568
     8664.50000 8.49363 85.8125 150.997 16.133
 0.23427 0.25823 2.23668 0.46148 0.4555
 0.85308 0.8387 0.8387 0 0.05164
 0.69013
     8665.00000 8.48148 86.0088 150.875 16.5888
 0.23235 0.26969 2.21876 0.45214 0.4567
 0.84269 0.8458 0.8458 0 0.06648
 0.66384
     8665.50000 8.47651 85.8964 151.56 17.3108
 0.22893 0.26077 2.20985 0.47751 0.4614
 0.87281 0.8499 0.8499 0 0
 0.73923
     8666.00000 8.47281 85.9974 151.544 17.3961
 0.22168 0.25874 2.21615 0.48937 0.4769
 0.85901 0.8432 0.8432 0 0
 0.74126
     8666.50000 8.47923 85.834 151.75 17.1021
 0.2226 0.24494 2.23332 0.52444 0.4924
 0.86829 0.8298 0.8298 0 0
 0.75506
     8667.00000 8.48673 84.9909 151.263 16.7415
 0.22086 0.24949 2.23918 0.52059 0.5036
 0.87497 0.8517 0.8517 0 0
 0.75051
     8667.50000 8.49083 85.2221 151.342 16.8247
 0.22403 0.24515 2.23502 0.53345 0.5015
 0.90414 0.8634 0.8634 0 0
 0.75485
     8668.00000 8.49211 85.1999 151.269 16.8793
 0.22521 0.25411 2.22836 0.51368 0.4961
 0.88615 0.8615 0.8615 0 0
 0.74589
     8668.50000 8.4915 85.0318 150.932 17.1922
 0.22382 0.25226 2.22723 0.51871 0.4972
 0.88847 0.8605 0.8605 0 0
 0.74774
     8669.00000 8.48525 84.7688 150.648 17.5786
 0.21482 0.24849 2.23214 0.52888 0.5087
 0.88679 0.864 0.864 0 0
 0.75151
     8669.50000 8.48913 83.9471 149.414 16.4253
 0.21059 0.24452 2.24136 0.5408 0.5209
 0.88338 0.862 0.862 0 0
 0.75548
     8670.00000 8.49572 82.9217 148.38 16.0367
 0.2077 0.24252 2.25297 0.54659 0.5324
 0.86678 0.8513 0.8513 0 0
 0.75748
     8670.50000 8.49808 81.5418 146.536 15.1911
 0.2124 0.23701 2.25842 0.55874 0.5315
 0.87079 0.8396 0.8396 0 0
 0.76299
     8671.00000 8.50262 79.8109 144.229 15.4048
 0.21243 0.23243 2.25989 0.56596 0.5289
 0.87712 0.836 0.836 0 0
 0.76757
     8671.50000 8.5018 77.2793 139.99 15.6049
 0.21078 0.22267 2.26555 0.58037 0.5249
 0.88841 0.8293 0.8293 0 0
 0.77733
     8672.00000 8.49902 75.2728 136.264 16.3135
 0.19692 0.21696 2.28306 0.57309 0.5312
 0.89198 0.8484 0.8484 0 0
 0.78304
     8672.50000 8.51535 72.1072 130.654 18.0516
 0.16588 0.19797 2.31705 0.58666 0.5554
 0.90418 0.8822 0.8822 0 0
 0.80203
     8673.00000 8.50279 68.588 125.816 17.6122
 0.14148 0.17778 2.35773 0.5994 0.5771
 0.87716 0.873 0.873 0 0
 0.82222
