~VERSION INFORMATION
 VERS. 2.0 :CWLS Log Ascii Standard - version 2.0
 WRAP. YES :Multiple Lines per Depth
~WELL INFORMATION
#MNEMONIC .UNIT                              VALUE :DESCRIPTION
#-------------------------------------------------------------------
STRT    .ft                                   90 : Start depth
STOP    .ft                               8789.5 : Stop depth
STEP    .ft                                    0 : Step (0=none)
NULL    .ft                               -999.25 : Null value
WELL    .                            BU-564-1-1V : Well name
COMP    .                                   ADCO : Company name
FLD     .                                 buhasa : Field name
LOC     .                                        : Well location
PROV    .                                        : n/a
STAT    .                                        : State
CNTY    .                                        : County
CTRY    .                                        : Country
DATE    .                                        : Log date
UWI     .                              BU564101V : Unique Well Id
LIC     .                                        : n/a
API     .                                        : n/a
SRVC    .                                        : Service company
LONG    .DEG                           53.331030 : n/a
LATI    .DEG                           23.517034 : n/a
XWELL   .M                         738019.340000 : Surface X
YWELL   .M                        2602472.960000 : Surface Y
LAT     .                                        : Latitude
LON     .                                        : Longitude
ELEV    .m                                     0 : Surface elevation
~CURVE INFORMATION
#MNEMONIC             .UNIT               API CODE :DESCRIPTION
#-------------------------------------------------------------------
 DEPTH                .FT                          :Depth
 CALI                 .IN                          :Anonymous
 DTCORRFINAL          .US/FT                       :Sonic
 DTSCORRFINAL         .US/FT                       :Sonic
 GR                   .API                         :Gamma ray
 NPHI                 .V/V                         :Anonymous
 PHIE                 .                            :Porosity
 RHOBCORRFINAL        .G/CM3                       :Density
 SW                   .V/V                         :Anonymous
 SWQ                  .FRAC                        :Anonymous
 SXO                  .V/V                         :Anonymous
 SXOQ                 .FRAC                        :Anonymous
 SXOQ                 .                            :Water saturation
 VCL                  .V/V                         :Anonymous
 VDOL                 .V/V                         :Anonymous
 VLIM                 .V/V                         :Anonymous
~A Log Data Section - Number of Curves = 16
# ...
     8127.00000 8.47714 80.0321 143.776 16.3328
 0.2333 0.24344 2.2147 0.13276 0.1217
 0.71981 0.6465 0.6465 0 0
 0.75656
     8127.50000 8.4918 78.9037 142.329 16.5721
 0.22824 0.24664 2.20996 0.11844 0.1105
 0.73863 0.6437 0.6437 0 0
 0.75336
     8128.00000 8.47531 76.3868 139.088 17.5018
 0.21425 0.24265 2.21926 0.09738 0.0927
 0.73767 0.6214 0.6214 0 0
 0.75735
     8128.50000 8.47307 76.2811 138.868 20.4867
 0.20421 0.23238 2.23844 0.08636 0.082
 0.69851 0.6065 0.6065 0 0.00086
 0.76676
     8129.00000 8.48018 76.0925 138.893 22.4198
 0.19552 0.22207 2.25937 0.07103 0.0674
 0.66668 0.5831 0.5831 0 0.00277
 0.77516
     8129.50000 8.47553 76.6575 139.799 23.3993
 0.19229 0.21103 2.27511 0.07191 0.0665
 0.6218 0.5654 0.5654 0 0
 0.78897
     8130.00000 8.48032 77.6393 140.172 21.0918
 0.19066 0.21036 2.2802 0.08063 0.075
 0.60028 0.5472 0.5472 0 0.00158
 0.78806
     8130.50000 8.46676 79.0429 141.81 18.5175
 0.19907 0.21489 2.26941 0.09259 0.0852
 0.60596 0.5484 0.5484 0 0
 0.78511
     8131.00000 8.46882 78.2597 140.538 15.7629
 0.20505 0.22646 2.2498 0.11206 0.1046
 0.64415 0.5885 0.5885 0 0
 0.77354
     8131.50000 8.46471 77.3483 138.661 15.2163
 0.20744 0.2319 2.23816 0.13561 0.1267
 0.64785 0.594 0.594 0 0
 0.7681
     8132.00000 8.45764 74.2542 134.226 15.8073
 0.20575 0.22912 2.23523 0.14321 0.1319
 0.70052 0.6395 0.6395 0 0
 0.77088
     8132.50000 8.45568 71.1073 127.798 16.7294
 0.1934 0.2225 2.24151 0.12758 0.1177
 0.76184 0.6518 0.6518 0 0
 0.7775
     8133.00000 8.45804 69.7016 125.808 18.0011
 0.17174 0.2002 2.26833 0.10997 0.0982
 0.76498 0.6287 0.6287 0 0
 0.7998
     8133.50000 8.45568 70.1289 125.152 20.6524
 0.13194 0.17312 2.31545 0.1012 0.0915
 0.65434 0.6199 0.6199 0 0
 0.82688
     8134.00000 8.47452 71.5508 126.833 22.424
 0.12241 0.14958 2.38129 0.09934 0.0895
 0.46584 0.4467 0.4467 0 0
 0.85042
     8134.50000 8.4798 75.1992 132.518 25.7456
 0.12225 0.14601 2.41454 0.09889 0.0934
 0.42942 0.4006 0.4006 0.00315 0.00514
 0.8457
     8135.00000 8.47358 78.1251 138.692 24.4091
 0.14007 0.15307 2.40867 0.10597 0.0986
 0.4291 0.3848 0.3848 0.00816 0.01007
 0.82871
     8135.50000 8.46465 80.0939 143.445 21.7559
 0.16019 0.1785 2.35466 0.1126 0.1053
 0.45706 0.4162 0.4162 0.00035 0.00684
 0.81431
     8136.00000 8.46567 82.3489 148.433 17.6507
 0.19097 0.2062 2.29332 0.11846 0.1093
 0.57074 0.5166 0.5166 0 0.00235
 0.79145
     8136.50000 8.45568 83.5549 150.634 16.4496
 0.20984 0.22769 2.2505 0.14014 0.1302
 0.65219 0.5928 0.5928 0 0.00069
 0.77161
     8137.00000 8.44792 84.9354 152.232 15.0938
 0.21823 0.23765 2.23529 0.16709 0.1567
 0.72891 0.6656 0.6656 0 0.0024
 0.75995
     8137.50000 8.46039 85.3596 154.287 15.0938
 0.22833 0.24298 2.22292 0.17547 0.163
 0.78857 0.6957 0.6957 0 0
 0.75702
     8138.00000 8.4651 84.973 155.185 14.5803
 0.24101 0.25073 2.20986 0.16016 0.1486
 0.81693 0.6829 0.6829 0 0
 0.74927
     8138.50000 8.45694 85.6934 155.44 13.9329
 0.25139 0.25498 2.20252 0.13457 0.1244
 0.82362 0.6591 0.6591 0 0
 0.74502
     8139.00000 8.45097 85.5695 155.495 14.316
 0.24923 0.26156 2.19987 0.10752 0.1025
 0.77641 0.6341 0.6341 0 0.01124
 0.7272
     8139.50000 8.45097 85.3574 155.742 14.6556
 0.23997 0.25936 2.20364 0.09791 0.0943
 0.78704 0.6236 0.6236 0 0.00986
 0.73077
     8140.00000 8.46209 84.8105 154.691 16.7119
 0.22674 0.25715 2.21031 0.07811 0.0771
 0.80344 0.599 0.599 0.00155 0.01082
 0.73049
     8140.50000 8.47053 84.9264 154.375 15.813
 0.22425 0.24419 2.21944 0.06405 0.0606
 0.85474 0.5708 0.5708 0 0
 0.75581
     8141.00000 8.46566 84.6133 153.398 17.9689
 0.22045 0.23731 2.22784 0.05593 0.0523
 0.82741 0.5541 0.5541 0 0
 0.76269
     8141.50000 8.46196 84.5899 154.275 18.0564
 0.22177 0.23592 2.2346 0.05146 0.0482
 0.77894 0.5452 0.5452 0 0
 0.76408
     8142.00000 8.46283 85.3124 154.246 20.5992
 0.22068 0.23718 2.2441 0.05315 0.0509
 0.75601 0.5512 0.5512 0.00481 0.00914
 0.74887
     8142.50000 8.47603 86.0751 153.395 21.0273
 0.22619 0.23943 2.24018 0.05827 0.0555
 0.75019 0.5609 0.5609 0.00734 0.01062
 0.74261
     8143.00000 8.46039 86.3446 152.469 20.6872
 0.23789 0.24871 2.22501 0.06248 0.0596
 0.75865 0.5689 0.5689 0.01034 0.01323
 0.72772
     8143.50000 8.45911 86.3347 153.4 20.8418
 0.24473 0.25682 2.20263 0.0653 0.0619
 0.77206 0.5732 0.5732 0.00353 0.00643
 0.73322
     8144.00000 8.45485 85.3392 154.156 21.3993
 0.24539 0.26208 2.19159 0.06405 0.0611
 0.75719 0.5717 0.5717 0.0061 0.00669
 0.72513
     8144.50000 8.46174 85.2238 154.054 21.6083
 0.23333 0.25717 2.19318 0.06542 0.0623
 0.74797 0.574 0.574 0 0
 0.74283
     8145.00000 8.45647 86.237 154.65 20.6888
 0.23363 0.25597 2.19949 0.06558 0.0626
 0.71862 0.5746 0.5746 0.00312 0.00513
 0.73579
     8145.50000 8.45804 86.5477 155.487 19.3444
 0.23118 0.25367 2.19886 0.06654 0.0631
 0.74905 0.5754 0.5754 0 0
 0.74633
     8146.00000 8.45703 86.6325 156.176 19.0615
 0.23095 0.24765 2.19661 0.06989 0.0643
 0.7721 0.5776 0.5776 0 0
 0.75235
     8146.50000 8.45354 86.9605 157.184 18.3515
 0.22679 0.24949 2.19307 0.07067 0.0656
 0.7758 0.5799 0.5799 0 0
 0.75051
     8147.00000 8.45924 86.9309 156.392 19.0707
 0.23442 0.25241 2.19428 0.07106 0.0662
 0.77704 0.581 0.581 0 0
 0.74759
     8147.50000 8.46053 87.1662 156.796 19.1676
 0.23764 0.25756 2.19283 0.06646 0.0629
 0.79468 0.5752 0.5752 0 0
 0.74244
     8148.00000 8.46054 87.0458 157.001 19.6476
 0.24105 0.25679 2.1926 0.05998 0.0563
 0.79706 0.5626 0.5626 0 0
 0.74321
     8148.50000 8.46144 87.3515 156.566 19.9486
 0.24004 0.25918 2.19462 0.05063 0.0483
 0.78876 0.5455 0.5455 0 0.00099
 0.73982
     8149.00000 8.45097 87.0481 156.512 20.9966
 0.23517 0.25902 2.19676 0.04237 0.0408
 0.78574 0.5275 0.5275 0 0.0023
 0.73868
     8149.50000 8.45246 86.3161 156.263 20.3725
 0.23824 0.2633 2.19377 0.03529 0.0344
 0.78147 0.5096 0.5096 0.00321 0.00639
 0.72709
     8150.00000 8.46331 86.1666 155.556 19.1334
 0.24249 0.26114 2.18483 0.03484 0.033
 0.80059 0.5054 0.5054 0 0
 0.73886
     8150.50000 8.44527 86.4897 156.195 17.4264
 0.24892 0.26445 2.17282 0.04113 0.0385
 0.79748 0.5212 0.5212 0 0
 0.73555
     8151.00000 8.44133 86.768 156.575 17.5694
 0.24638 0.26483 2.16249 0.05237 0.0485
 0.7835 0.5459 0.5459 0 0
 0.73517
     8151.50000 8.44879 86.8852 156.14 19.8844
 0.22767 0.26517 2.16355 0.06182 0.0589
 0.7724 0.5676 0.5676 0 0
 0.73483
     8152.00000 8.45209 87.5269 157.041 20.3126
 0.22326 0.264 2.17254 0.07948 0.0767
 0.71221 0.5983 0.5983 0 0
 0.736
     8152.50000 8.43941 87.912 157.57 21.5539
 0.22907 0.26451 2.18301 0.09782 0.095
 0.70537 0.6246 0.6246 0.00828 0.00835
 0.71886
     8153.00000 8.44486 86.921 159.298 20.1179
 0.24421 0.266 2.18074 0.11274 0.1073
 0.71874 0.64 0.64 0.00467 0.00756
 0.72176
     8153.50000 8.44626 85.9307 158.911 19.6993
 0.25254 0.26537 2.17044 0.11582 0.1071
 0.78977 0.6397 0.6397 0 0
 0.73463
     8154.00000 8.46147 85.2209 158.439 20.0046
 0.25141 0.26777 2.16202 0.10925 0.1012
 0.81487 0.6324 0.6324 0 0
 0.73223
     8154.50000 8.46039 84.5374 158.443 22.0729
 0.2497 0.27023 2.16103 0.09821 0.0921
 0.82156 0.6206 0.6206 0 0
 0.72977
     8155.00000 8.45568 84.4399 157.87 23.4838
 0.24538 0.27626 2.16297 0.08591 0.0834
 0.80995 0.6085 0.6085 0.00759 0.00329
 0.71286
     8155.50000 8.46039 85.4463 158.012 22.4973
 0.24614 0.26844 2.16613 0.08037 0.0758
 0.82192 0.597 0.597 0 0
 0.73156
     8156.00000 8.46432 86.2365 157.528 21.8188
 0.24377 0.26192 2.17388 0.07546 0.0702
 0.82624 0.5879 0.5879 0 0
 0.73808
     8156.50000 8.46039 86.8059 157.362 21.5309
 0.24254 0.26549 2.17645 0.06678 0.0635
 0.80483 0.5762 0.5762 0 0
 0.73451
     8157.00000 8.46981 86.5802 157.303 21.4775
 0.23739 0.26936 2.17695 0.05793 0.0565
 0.79255 0.5628 0.5628 0.00316 0.00312
 0.72436
     8157.50000 8.48159 86.823 157.586 21.526
 0.23895 0.2673 2.1731 0.0519 0.0498
 0.80272 0.5489 0.5489 0 0
 0.7327
     8158.00000 8.46039 87.0223 158.03 20.9668
 0.24076 0.26345 2.17388 0.0488 0.046
 0.80722 0.5402 0.5402 0 0
 0.73655
     8158.50000 8.45568 86.8713 158.263 21.7087
 0.24349 0.26174 2.17628 0.04886 0.0457
 0.80749 0.5395 0.5395 0 0
 0.73826
