~VERSION INFORMATION
 VERS. 2.0 :CWLS Log Ascii Standard - version 2.0
 WRAP. YES :Multiple Lines per Depth
~WELL INFORMATION
#MNEMONIC .UNIT                              VALUE :DESCRIPTION
#-------------------------------------------------------------------
STRT    .ft                                   90 : Start depth
STOP    .ft                               8789.5 : Stop depth
STEP    .ft                                    0 : Step (0=none)
NULL    .ft                               -999.25 : Null value
WELL    .                            BU-564-1-1V : Well name
COMP    .                                   ADCO : Company name
FLD     .                                 buhasa : Field name
LOC     .                                        : Well location
PROV    .                                        : n/a
STAT    .                                        : State
CNTY    .                                        : County
CTRY    .                                        : Country
DATE    .                                        : Log date
UWI     .                              BU564101V : Unique Well Id
LIC     .                                        : n/a
API     .                                        : n/a
SRVC    .                                        : Service company
LONG    .DEG                           53.331030 : n/a
LATI    .DEG                           23.517034 : n/a
XWELL   .M                         738019.340000 : Surface X
YWELL   .M                        2602472.960000 : Surface Y
LAT     .                                        : Latitude
LON     .                                        : Longitude
ELEV    .m                                     0 : Surface elevation
~CURVE INFORMATION
#MNEMONIC             .UNIT               API CODE :DESCRIPTION
#-------------------------------------------------------------------
 DEPTH                .FT                          :Depth
 CALI                 .IN                          :Anonymous
 DTCORRFINAL          .US/FT                       :Sonic
 DTSCORRFINAL         .US/FT                       :Sonic
 GR                   .API                         :Gamma ray
 NPHI                 .V/V                         :Anonymous
 PHIE                 .                            :Porosity
 RHOBCORRFINAL        .G/CM3                       :Density
 SW                   .V/V                         :Anonymous
 SWQ                  .FRAC                        :Anonymous
 SXO                  .V/V                         :Anonymous
 SXOQ                 .FRAC                        :Anonymous
 SXOQ                 .                            :Water saturation
 VCL                  .V/V                         :Anonymous
 VDOL                 .V/V                         :Anonymous
 VLIM                 .V/V                         :Anonymous
~A Log Data Section - Number of Curves = 16
# ...
     8571.00000 8.46754 55.9539 106.092 23.6235
 0.0271 0.06553 2.56883 0.69695 0.8265
 0.78383 0.9626 0.9626 0 0
 0.93447
     8571.50000 8.47194 54.0383 102.216 28.9706
 0.01812 0.0424 2.63071 0.83362 1
 0.97642 1 1 0 0.00326
 0.95434
     8572.00000 8.46039 53.1128 100.765 39.7925
 0.0167 0.03022 2.67084 0.97476 1
 1 1 1 0.01964 0.01415
 0.93599
     8572.50000 8.46102 54.4493 102.939 46.9094
 0.01702 0.02496 2.6905 1 1
 1 1 1 0.03196 0.02124
 0.92184
     8573.00000 8.46896 56.8389 109.085 49.1369
 0.01692 0.02406 2.68892 1 1
 1 1 1 0.0355 0.01981
 0.92063
     8573.50000 8.47974 57.5636 110.025 52.6549
 0.01663 0.02458 2.68373 1 1
 1 1 1 0.03786 0.01795
 0.91961
     8574.00000 8.46153 58.4461 112.896 55.6175
 0.01938 0.02626 2.67774 1 1
 1 1 1 0.04556 0.01717
 0.911
     8574.50000 8.46667 58.4802 112.82 59.9273
 0.03651 0.02827 2.67562 1 0.9589
 1 0.9916 0.9916 0.05944 0.01917
 0.89312
     8575.00000 8.48908 57.7931 112.193 59.3904
 0.0571 0.03799 2.68083 0.80152 0.7092
 1 0.9336 0.9336 0.06485 0.03103
 0.86614
     8575.50000 8.51309 56.9666 110.445 52.9657
 0.0526 0.03902 2.68289 0.80598 0.7974
 1 0.9557 0.9557 0.05538 0.03295
 0.87266
     8576.00000 8.45961 54.4685 106.33 40.2083
 0.02614 0.03553 2.68478 0.83324 1
 1 1 1 0.02442 0.02854
 0.91151
     8576.50000 8.46125 52.851 102.873 32.7504
 0.00871 0.02213 2.68758 1 1
 1 1 1 0.00427 0.01664
 0.95696
     8577.00000 8.46604 52.9389 101.431 27.5538
 0.00415 0.01632 2.69857 1 1
 1 1 1 0 0.01631
 0.96737
     8577.50000 8.46542 52.9864 102.426 26.4039
 0.00443 0.01191 2.71337 1 1
 1 1 1 0 0.01999
 0.9681
     8578.00000 8.46039 53.2743 103.577 24.1057
 0.00539 0.01242 2.71527 1 1
 1 1 1 0 0.02142
 0.96616
     8578.50000 8.4651 55.2149 105.936 23.3368
 0.00722 0.01495 2.71081 1 1
 1 1 1 0 0.0213
 0.96375
     8579.00000 8.45691 56.4532 108.057 27.3067
 0.01051 0.0203 2.69848 1 1
 1 1 1 0 0.01948
 0.96022
     8579.50000 8.46228 56.8353 110.168 36.988
 0.01809 0.02324 2.69168 1 1
 1 1 1 0.01847 0.01973
 0.93855
     8580.00000 8.47199 58.3574 111.914 47.0677
 0.04147 0.02972 2.6879 1 0.9855
 1 0.9971 0.9971 0.04194 0.02492
 0.90341
     8580.50000 8.50185 58.0942 111.874 55.7579
 0.06758 0.03631 2.69648 0.96091 0.7557
 1 0.9455 0.9455 0.06611 0.0373
 0.86028
     8581.00000 8.51221 57.9099 112.034 53.7122
 0.06527 0.03988 2.70231 0.90671 0.8294
 1 0.9633 0.9633 0.06735 0.04427
 0.84851
     8581.50000 8.50279 57.4294 111.434 47.0577
 0.05013 0.03667 2.70629 0.98872 1
 1 1 1 0.05344 0.04291
 0.86697
     8582.00000 8.48866 56.7039 110.495 43.1394
 0.03057 0.03097 2.70427 1 1
 1 1 1 0.04228 0.03645
 0.89029
     8582.50000 8.47452 55.5079 108.443 40.9943
 0.02659 0.02848 2.70413 1 1
 1 1 1 0.03366 0.03343
 0.90443
     8583.00000 8.47923 56.2235 108.688 38.7426
 0.02275 0.02748 2.70608 1 1
 1 1 1 0.02765 0.03311
 0.91177
     8583.50000 8.47056 56.2376 109.275 35.2398
 0.01871 0.0279 2.70029 1 1
 1 1 1 0.01961 0.02973
 0.92275
     8584.00000 8.46788 56.1927 109.999 35.6101
 0.01883 0.02773 2.69305 1 1
 1 1 1 0.01972 0.02561
 0.92695
     8584.50000 8.46981 56.2327 109.544 39.3094
 0.02815 0.02938 2.68998 1 1
 1 1 1 0.02537 0.02566
 0.91958
     8585.00000 8.49808 56.3711 109.031 44.5243
 0.03934 0.03185 2.69085 1 1
 1 1 1 0.03946 0.02964
 0.89904
     8585.50000 8.49808 54.1419 105.51 45.3596
 0.04048 0.0352 2.69391 0.92404 1
 1 1 1 0.04033 0.03459
 0.88988
     8586.00000 8.49337 54.5696 104.966 40.7792
 0.02604 0.03337 2.68899 0.92429 1
 1 1 1 0.03169 0.02984
 0.9051
     8586.50000 8.4738 53.6202 104.247 33.5571
 0.0124 0.02697 2.69417 1 1
 1 1 1 0.00827 0.02528
 0.93948
     8587.00000 8.47435 52.9349 101.325 29.044
 0.0041 0.01803 2.69847 1 1
 1 1 1 0 0.01859
 0.96337
     8587.50000 8.47976 51.776 99.7223 28.5951
 0.00326 0.01141 2.71348 1 1
 1 1 1 0 0.01971
 0.96888
     8588.00000 8.47609 52.2992 100.156 29.7877
 0.00434 0.01062 2.71729 1 1
 1 1 1 0 0.02023
 0.96915
     8588.50000 8.48442 52.892 101.642 32.2028
 0.00678 0.01149 2.71736 1 1
 1 1 1 0.00598 0.02099
 0.96154
     8589.00000 8.46619 54.3678 104.443 35.3356
 0.01343 0.01664 2.70927 1 1
 1 1 1 0.01419 0.02142
 0.94774
     8589.50000 8.48551 55.3361 107.078 37.1555
 0.02109 0.02151 2.70718 1 1
 1 1 1 0.02401 0.02544
 0.92903
     8590.00000 8.50279 58.177 110.863 41.3006
 0.02896 0.02763 2.70558 1 1
 1 1 1 0.03597 0.03118
 0.90523
     8590.50000 8.51221 59.4533 113.72 44.2134
 0.03703 0.02915 2.71199 1 1
 1 1 1 0.04433 0.03718
 0.88933
     8591.00000 8.5132 59.6692 114.725 47.1186
 0.04038 0.03121 2.71302 1 1
 1 1 1 0.04862 0.04033
 0.87984
     8591.50000 8.51221 59.8239 115.284 46.9829
 0.04651 0.03401 2.70468 1 1
 1 1 1 0.04931 0.03893
 0.87775
     8592.00000 8.51221 59.866 115.801 45.6501
 0.05414 0.03955 2.68767 0.97521 0.952
 1 0.9902 0.9902 0.05065 0.03525
 0.87455
     8592.50000 8.50907 59.5769 115.294 46.1502
 0.05955 0.0431 2.68023 0.90867 0.8667
 1 0.9718 0.9718 0.0515 0.0346
 0.8708
     8593.00000 8.51032 57.957 113.517 46.0221
 0.05747 0.04378 2.68911 0.89013 0.9247
 1 0.9845 0.9845 0.05566 0.04057
 0.85999
     8593.50000 8.51466 58.0198 112.255 43.8153
 0.05009 0.04062 2.6954 0.94719 1
 1 1 1 0.04798 0.04031
 0.87109
     8594.00000 8.50397 56.958 111.277 40.6769
 0.03593 0.03572 2.69804 1 1
 1 1 1 0.03718 0.03683
 0.89027
     8594.50000 8.50309 56.4635 110.895 34.8316
 0.02495 0.03236 2.69296 1 1
 1 1 1 0.02197 0.02981
 0.91586
     8595.00000 8.47724 56.312 109.535 33.721
 0.02216 0.02949 2.69383 1 1
 1 1 1 0.01716 0.02709
 0.92626
     8595.50000 8.48237 56.1262 108.7 32.2006
 0.02249 0.02963 2.69927 1 1
 1 1 1 0.01541 0.02991
 0.92505
     8596.00000 8.49337 55.8194 108.878 32.4037
 0.02278 0.03036 2.6991 1 1
 1 1 1 0.01257 0.03021
 0.92686
     8596.50000 8.47452 55.6284 108.463 32.8717
 0.01931 0.03045 2.69762 1 1
 1 1 1 0.01201 0.02963
 0.92791
     8597.00000 8.469 55.0961 107.107 33.2171
 0.01607 0.02823 2.69354 1 1
 1 1 1 0.00988 0.02537
 0.93652
     8597.50000 8.46856 54.8384 106.812 31.7815
 0.01521 0.0258 2.69644 1 1
 1 1 1 0.00943 0.02477
 0.94
     8598.00000 8.47722 55.302 108.203 31.1634
 0.01811 0.02565 2.70033 1 1
 1 1 1 0.01008 0.02664
 0.93763
     8598.50000 8.49144 56.7052 109.948 35.7051
 0.0239 0.02701 2.69776 1 1
 1 1 1 0.02251 0.02754
 0.92294
     8599.00000 8.50279 57.0913 111.131 41.3345
 0.03157 0.02901 2.70066 1 1
 1 1 1 0.03427 0.032
 0.90472
     8599.50000 8.50571 57.5428 111.459 45.2016
 0.03781 0.02993 2.70517 1 1
 1 1 1 0.04338 0.03638
 0.89031
     8600.00000 8.50985 57.232 110.977 45.5541
 0.03625 0.03176 2.70604 1 1
 1 1 1 0.04281 0.03863
 0.8868
     8600.50000 8.5072 56.4022 109.991 45.6957
 0.03022 0.0294 2.70503 1 1
 1 1 1 0.03874 0.03565
 0.89621
     8601.00000 8.50279 55.834 108.184 43.4708
 0.02271 0.02639 2.70594 1 1
 1 1 1 0.03417 0.03292
 0.90653
     8601.50000 8.49808 54.7725 106.659 40.3092
 0.02077 0.02496 2.69901 1 1
 1 1 1 0.02516 0.02672
 0.92316
     8602.00000 8.49422 54.4973 105.657 37.9853
 0.019 0.02527 2.69132 1 1
 1 1 1 0.01977 0.02198
 0.93298
     8602.50000 8.47232 54.7432 105.861 36.2359
 0.01731 0.0258 2.67811 0.97619 1
 1 1 1 0.0136 0.01449
 0.94611
     8603.00000 8.46129 54.8529 106.614 35.5574
 0.01565 0.02363 2.67992 1 1
 1 1 1 0.0135 0.01375
 0.94912
     8603.50000 8.48277 54.9147 106.159 34.4623
 0.0129 0.02396 2.68349 1 1
 1 1 1 0.01188 0.0159
 0.94826
     8604.00000 8.47865 54.4342 105.516 35.5559
 0.01381 0.02267 2.69295 1 1
 1 1 1 0.01158 0.01999
 0.94576
     8604.50000 8.4787 54.3282 105.412 36.5932
 0.0151 0.02244 2.6964 1 1
 1 1 1 0.01307 0.02195
 0.94254
     8605.00000 8.48266 54.1438 104.657 37.6305
 0.01472 0.02187 2.69464 1 1
 1 1 1 0.0169 0.02093
 0.9403
     8605.50000 8.48237 54.0369 103.938 37.8095
 0.01368 0.02206 2.69056 0.98873 1
 1 1 1 0.01702 0.01873
 0.9422
     8606.00000 8.48442 53.9519 103.821 38.925
 0.01363 0.0215 2.69439 0.9781 1
 1 1 1 0.01951 0.0199
 0.93908
     8606.50000 8.48188 53.7188 103.298 38.5095
 0.01328 0.01899 2.70614 1 1
 1 1 1 0.02118 0.02422
 0.93561
     8607.00000 8.48897 53.7536 103.174 37.1361
 0.01128 0.0163 2.71356 1 1
 1 1 1 0.01978 0.0256
 0.93832
