~VERSION INFORMATION
 VERS. 2.0 :CWLS Log Ascii Standard - version 2.0
 WRAP. YES :Multiple Lines per Depth
~WELL INFORMATION
#MNEMONIC .UNIT                              VALUE :DESCRIPTION
#-------------------------------------------------------------------
STRT    .ft                                   90 : Start depth
STOP    .ft                               8789.5 : Stop depth
STEP    .ft                                    0 : Step (0=none)
NULL    .ft                               -999.25 : Null value
WELL    .                            BU-564-1-1V : Well name
COMP    .                                   ADCO : Company name
FLD     .                                 buhasa : Field name
LOC     .                                        : Well location
PROV    .                                        : n/a
STAT    .                                        : State
CNTY    .                                        : County
CTRY    .                                        : Country
DATE    .                                        : Log date
UWI     .                              BU564101V : Unique Well Id
LIC     .                                        : n/a
API     .                                        : n/a
SRVC    .                                        : Service company
LONG    .DEG                           53.331030 : n/a
LATI    .DEG                           23.517034 : n/a
XWELL   .M                         738019.340000 : Surface X
YWELL   .M                        2602472.960000 : Surface Y
LAT     .                                        : Latitude
LON     .                                        : Longitude
ELEV    .m                                     0 : Surface elevation
~CURVE INFORMATION
#MNEMONIC             .UNIT               API CODE :DESCRIPTION
#-------------------------------------------------------------------
 DEPTH                .FT                          :Depth
 CALI                 .IN                          :Anonymous
 DTCORRFINAL          .US/FT                       :Sonic
 DTSCORRFINAL         .US/FT                       :Sonic
 GR                   .API                         :Gamma ray
 NPHI                 .V/V                         :Anonymous
 PHIE                 .                            :Porosity
 RHOBCORRFINAL        .G/CM3                       :Density
 SW                   .V/V                         :Anonymous
 SWQ                  .FRAC                        :Anonymous
 SXO                  .V/V                         :Anonymous
 SXOQ                 .FRAC                        :Anonymous
 SXOQ                 .                            :Water saturation
 VCL                  .V/V                         :Anonymous
 VDOL                 .V/V                         :Anonymous
 VLIM                 .V/V                         :Anonymous
~A Log Data Section - Number of Curves = 16
# ...
     8744.00000 8.47881 88.3966 173.311 14.6087
 0.26185 0.28247 2.27038 1 1
 1 1 1 0 0.05342
 0.66411
     8744.50000 8.47923 88.1817 172.806 14.2715
 0.25719 0.28148 2.26902 1 1
 1 1 1 0 0.04802
 0.6705
     8745.00000 8.46239 87.5497 171.32 14.25
 0.252 0.27854 2.27301 1 1
 1 1 1 0 0.04157
 0.67989
     8745.50000 8.4661 87.2985 170.731 13.991
 0.24534 0.27736 2.27233 1 1
 1 1 1 0 0.03248
 0.69016
     8746.00000 8.4706 87.8473 172.019 14.5751
 0.24748 0.27993 2.27097 1 1
 1 1 1 0 0.03856
 0.68151
     8746.50000 8.46981 88.1579 172.749 15.4535
 0.2497 0.28137 2.269 1 1
 1 1 1 0 0.04179
 0.67684
     8747.00000 8.48009 89.0012 174.738 16.0613
 0.25177 0.28523 2.2662 1 1
 1 1 1 0 0.05098
 0.6638
     8747.50000 8.48394 87.8538 172.034 16.3283
 0.25219 0.27996 2.26428 1 1
 1 1 1 0 0.02544
 0.6946
     8748.00000 8.46308 87.9269 172.206 16.3707
 0.25237 0.2803 2.26016 1 1
 1 1 1 0 0.02331
 0.69639
     8748.50000 8.46661 87.2582 170.637 16.4212
 0.25226 0.27717 2.26283 1 1
 1 1 1 0 0.01196
 0.71087
     8749.00000 8.46559 88.1254 172.673 16.2298
 0.25221 0.28122 2.27113 1 1
 1 1 1 0 0.03981
 0.67897
     8749.50000 8.46493 88.5579 173.692 15.6611
 0.25424 0.28321 2.28137 1 1
 1 1 1 0 0.06315
 0.65363
     8750.00000 8.45901 89.0542 174.863 14.1083
 0.25908 0.28547 2.29022 1 1
 1 1 1 0 0.09263
 0.6219
     8750.50000 8.46252 88.314 173.117 15.021
 0.25347 0.28209 2.28977 1 1
 1 1 1 0 0.08403
 0.63389
     8751.00000 8.4625 87.2243 170.558 16.0308
 0.24143 0.27701 2.28412 1 1
 1 1 1 0 0.05638
 0.66661
     8751.50000 8.4651 85.6251 166.824 16.3193
 0.2405 0.26932 2.28043 1 1
 1 1 1 0 0.02025
 0.71043
     8752.00000 8.47914 84.9647 165.29 16.2006
 0.24614 0.26606 2.28178 1 1
 1 1 1 0 0.02166
 0.71228
     8752.50000 8.47495 85.67 166.929 16.1946
 0.25242 0.26954 2.28657 1 1
 1 1 1 0 0.04247
 0.68799
     8753.00000 8.48394 86.8132 169.595 16.8276
 0.25793 0.27506 2.28299 1 1
 1 1 1 0 0.05831
 0.66663
     8753.50000 8.48394 88.3726 173.255 15.9567
 0.26094 0.28236 2.28192 1 1
 1 1 1 0 0.07055
 0.64708
     8754.00000 8.48866 87.6031 171.446 16.1229
 0.25707 0.27879 2.28716 1 1
 1 1 1 0 0.072
 0.64922
     8754.50000 8.48332 86.6477 169.208 16.2366
 0.25358 0.27427 2.29453 1 1
 1 1 1 0 0.07251
 0.65322
     8755.00000 8.48866 85.717 167.038 16.6004
 0.24613 0.26977 2.29459 1 1
 1 1 1 0 0.05978
 0.67045
     8755.50000 8.49808 85.2046 165.847 16.979
 0.24616 0.26725 2.28944 1 1
 1 1 1 0 0.04756
 0.68519
     8756.00000 8.50135 84.9366 165.225 17.1935
 0.24456 0.26592 2.28404 1 1
 1 1 1 0 0.03459
 0.69949
     8756.50000 8.49933 84.3283 163.816 16.7136
 0.24287 0.26287 2.28312 1 1
 1 1 1 0 0.02128
 0.71586
     8757.00000 8.50253 84.7862 164.876 16.4742
 0.24308 0.26517 2.28756 1 1
 1 1 1 0 0.03643
 0.6984
     8757.50000 8.48614 84.1366 163.373 14.7198
 0.24314 0.2619 2.29377 1 1
 1 1 1 0 0.02833
 0.70976
     8758.00000 8.51916 84.8302 164.978 15.6277
 0.25087 0.26539 2.29462 1 1
 1 1 1 0 0.04006
 0.69455
     8758.50000 8.52864 86.1695 168.092 15.3898
 0.25017 0.27197 2.29206 1 1
 1 1 1 0 0.05752
 0.67051
     8759.00000 8.52559 85.799 167.229 16.4441
 0.24963 0.27017 2.2916 1 1
 1 1 1 0 0.05249
 0.67735
     8759.50000 8.51363 84.5188 164.257 16.0686
 0.23575 0.26383 2.29523 1 1
 1 1 1 0 0.03793
 0.69825
     8760.00000 8.49833 83.8498 162.711 16.3994
 0.24325 0.26044 2.29911 1 1
 1 1 1 0 0.03623
 0.70333
     8760.50000 8.48875 84.481 164.17 16.3082
 0.24898 0.26364 2.30092 1 1
 1 1 1 0 0.05757
 0.67879
     8761.00000 8.48812 82.9148 160.558 15.3197
 0.24504 0.25561 2.31294 1 1
 1 1 1 0 0.05854
 0.68585
     8761.50000 8.48536 80.763 155.638 14.3181
 0.22721 0.24407 2.33036 1 1
 1 1 1 0 0.05647
 0.69946
     8762.00000 8.49085 78.7304 151.033 14.059
 0.22066 0.23259 2.35014 1 1
 1 1 1 0 0.05683
 0.71058
     8762.50000 8.49415 77.149 147.479 13.7331
 0.21777 0.22324 2.36285 1 1
 1 1 1 0 0.05186
 0.7249
     8763.00000 8.49808 75.4726 143.739 14.6054
 0.2082 0.2129 2.37334 1 1
 1 1 1 0 0.04364
 0.74346
     8763.50000 8.49808 73.3619 139.07 15.3794
 0.19578 0.19921 2.39128 1 1
 1 1 1 0 0.0326
 0.76819
     8764.00000 8.49808 71.6252 135.26 16.2062
 0.17341 0.18734 2.40683 1 1
 1 1 1 0 0.02962
 0.78304
     8764.50000 8.48651 69.4935 130.623 16.6676
 0.15899 0.17196 2.42241 1 1
 1 1 1 0 0.01287
 0.81517
     8765.00000 8.49157 67.672 126.695 16.4525
 0.13515 0.15805 2.4441 1 1
 1 1 1 0 0.01024
 0.83171
     8765.50000 8.49206 65.2262 121.47 16.7402
 0.11164 0.13815 2.47292 1 1
 1 1 1 0 0.00389
 0.85797
     8766.00000 8.49094 63.1202 117.014 18.2271
 0.09359 0.11978 2.51064 1 1
 1 1 1 0 0.01351
 0.86671
     8766.50000 8.48939 61.5505 113.72 18.8773
 0.08784 0.10527 2.54134 1 1
 1 1 1 0 0.02307
 0.87165
     8767.00000 8.48798 61.4284 113.464 18.1044
 0.09949 0.10411 2.55987 1 1
 1 1 1 0 0.04295
 0.85293
     8767.50000 8.48151 62.3303 115.354 17.9223
 0.12177 0.11257 2.56486 1 1
 1 1 1 0 0.06674
 0.82069
     8768.00000 8.47988 63.4492 117.708 17.7403
 0.13511 0.12273 2.55597 1 1
 1 1 1 0.0062 0.07882
 0.79225
     8768.50000 8.49415 64.7394 120.436 17.5888
 0.13698 0.13401 2.54586 1 1
 1 1 1 0.00568 0.0898
 0.77051
     8769.00000 8.50254 65.6171 122.301 17.2545
 0.13993 0.14143 2.51927 1 1
 1 1 1 0 0.07042
 0.78815
     8769.50000 8.48947 66.3052 123.768 16.0346
 0.13578 0.14711 2.49141 1 1
 1 1 1 0 0.0473
 0.8056
     8770.00000 8.48439 66.4635 124.106 15.827
 0.13514 0.1484 2.4656 1 1
 1 1 1 0 0.02101
 0.8306
     8770.50000 8.48771 66.2807 123.716 15.4894
 0.12743 0.14691 2.46989 0.94138 1
 1 1 1 0 0.0065
 0.84659
     8771.00000 8.47452 65.9723 122.605 16.0344
 0.12343 0.14134 2.4764 0.91271 0.9851
 1 0.997 0.997 0 0.00539
 0.85327
     8771.50000 8.48352 65.9963 121.719 16.9778
 0.12089 0.13817 2.48247 0.85655 0.9346
 1 0.9866 0.9866 0 0.0096
 0.85223
     8772.00000 8.4771 66.2573 121.483 16.8771
 0.12263 0.13773 2.48238 0.7721 0.8471
 1 0.9674 0.9674 0 0.01614
 0.84613
     8772.50000 8.46887 66.2636 121.276 16.8719
 0.11004 0.13725 2.47743 0.68792 0.7846
 1 0.9526 0.9526 0 0.01436
 0.84839
     8773.00000 8.47324 65.646 120.053 15.9861
 0.07443 0.13229 2.4764 0.62493 0.7923
 1 0.9545 0.9545 0 0
 0.86771
     8773.50000 8.46783 64.1865 117.088 16.2326
 0.0614 0.12004 2.48616 0.60608 0.7728
 1 0.9497 0.9497 0 0
 0.87996
     8774.00000 8.46367 -999.25 -999.25 15.1928
 -999.25 -999.25 2.50172 -999.25 -999.25
 -999.25 -999.25 -999.25 -999.25 -999.25
 -999.25
     8774.50000 8.45568 -999.25 -999.25 14.453
 -999.25 -999.25 2.52953 -999.25 -999.25
 -999.25 -999.25 -999.25 -999.25 -999.25
 -999.25
     8775.00000 8.44698 -999.25 -999.25 14.5206
 -999.25 -999.25 2.56908 -999.25 -999.25
 -999.25 -999.25 -999.25 -999.25 -999.25
 -999.25
     8775.50000 8.43684 -999.25 -999.25 16.4157
 -999.25 -999.25 2.6155 -999.25 -999.25
 -999.25 -999.25 -999.25 -999.25 -999.25
 -999.25
     8776.00000 8.45292 -999.25 -999.25 16.9184
 -999.25 -999.25 2.6601 -999.25 -999.25
 -999.25 -999.25 -999.25 -999.25 -999.25
 -999.25
     8776.50000 8.4227 -999.25 -999.25 16.5898
 -999.25 -999.25 2.6805 -999.25 -999.25
 -999.25 -999.25 -999.25 -999.25 -999.25
 -999.25
     8777.00000 8.42035 -999.25 -999.25 15.5683
 -999.25 -999.25 2.69221 -999.25 -999.25
 -999.25 -999.25 -999.25 -999.25 -999.25
 -999.25
     8777.50000 8.4187 -999.25 -999.25 15.0524
 -999.25 -999.25 2.69522 -999.25 -999.25
 -999.25 -999.25 -999.25 -999.25 -999.25
 -999.25
     8778.00000 8.4227 -999.25 -999.25 -999.25
 -999.25 -999.25 2.70025 -999.25 -999.25
 -999.25 -999.25 -999.25 -999.25 -999.25
 -999.25
     8778.50000 8.42492 -999.25 -999.25 -999.25
 -999.25 -999.25 2.69638 -999.25 -999.25
 -999.25 -999.25 -999.25 -999.25 -999.25
 -999.25
     8779.00000 8.4159 -999.25 -999.25 -999.25
 -999.25 -999.25 2.69129 -999.25 -999.25
 -999.25 -999.25 -999.25 -999.25 -999.25
 -999.25
     8779.50000 8.41836 -999.25 -999.25 -999.25
 -999.25 -999.25 2.68597 -999.25 -999.25
 -999.25 -999.25 -999.25 -999.25 -999.25
 -999.25
     8780.00000 8.439 -999.25 -999.25 -999.25
 -999.25 -999.25 2.69171 -999.25 -999.25
 -999.25 -999.25 -999.25 -999.25 -999.25
 -999.25
