~VERSION INFORMATION
 VERS. 2.0 :CWLS Log Ascii Standard - version 2.0
 WRAP. YES :Multiple Lines per Depth
~WELL INFORMATION
#MNEMONIC .UNIT                              VALUE :DESCRIPTION
#-------------------------------------------------------------------
STRT    .ft                                   90 : Start depth
STOP    .ft                               8789.5 : Stop depth
STEP    .ft                                    0 : Step (0=none)
NULL    .ft                               -999.25 : Null value
WELL    .                            BU-564-1-1V : Well name
COMP    .                                   ADCO : Company name
FLD     .                                 buhasa : Field name
LOC     .                                        : Well location
PROV    .                                        : n/a
STAT    .                                        : State
CNTY    .                                        : County
CTRY    .                                        : Country
DATE    .                                        : Log date
UWI     .                              BU564101V : Unique Well Id
LIC     .                                        : n/a
API     .                                        : n/a
SRVC    .                                        : Service company
LONG    .DEG                           53.331030 : n/a
LATI    .DEG                           23.517034 : n/a
XWELL   .M                         738019.340000 : Surface X
YWELL   .M                        2602472.960000 : Surface Y
LAT     .                                        : Latitude
LON     .                                        : Longitude
ELEV    .m                                     0 : Surface elevation
~CURVE INFORMATION
#MNEMONIC             .UNIT               API CODE :DESCRIPTION
#-------------------------------------------------------------------
 DEPTH                .FT                          :Depth
 CALI                 .IN                          :Anonymous
 DTCORRFINAL          .US/FT                       :Sonic
 DTSCORRFINAL         .US/FT                       :Sonic
 GR                   .API                         :Gamma ray
 NPHI                 .V/V                         :Anonymous
 PHIE                 .                            :Porosity
 RHOBCORRFINAL        .G/CM3                       :Density
 SW                   .V/V                         :Anonymous
 SWQ                  .FRAC                        :Anonymous
 SXO                  .V/V                         :Anonymous
 SXOQ                 .FRAC                        :Anonymous
 SXOQ                 .                            :Water saturation
 VCL                  .V/V                         :Anonymous
 VDOL                 .V/V                         :Anonymous
 VLIM                 .V/V                         :Anonymous
~A Log Data Section - Number of Curves = 16
# ...
     8475.00000 8.48147 84.7129 151.426 25.9138
 0.23535 0.25645 2.20109 0.16965 0.1712
 0.6679 0.6518 0.6518 0.01635 0.00758
 0.71962
     8475.50000 8.47116 84.977 152.358 24.0951
 0.23292 0.25541 2.19521 0.1614 0.162
 0.71248 0.6949 0.6949 0.00497 0.00177
 0.73785
     8476.00000 8.47923 84.8785 152.609 22.0529
 0.23898 0.26143 2.18579 0.14914 0.1503
 0.70758 0.6846 0.6846 0.00447 0.00422
 0.72988
     8476.50000 8.48437 85.1824 152.826 21.3006
 0.23832 0.26592 2.17871 0.14173 0.1444
 0.71255 0.679 0.679 0.0049 0.00555
 0.72362
     8477.00000 8.48736 84.9017 153.125 21.2003
 0.23875 0.26644 2.17861 0.13613 0.1389
 0.71749 0.6739 0.6739 0.00543 0.0062
 0.72193
     8477.50000 8.47923 84.5145 152.624 22.5761
 0.23828 0.25999 2.1878 0.13507 0.1361
 0.72941 0.6711 0.6711 0.00302 0.00248
 0.73451
     8478.00000 8.47877 83.9675 151.88 21.939
 0.23562 0.25499 2.19745 0.13433 0.135
 0.72853 0.67 0.67 0.00093 0.00216
 0.74191
     8478.50000 8.4858 84.3303 151.76 23.1814
 0.23762 0.24962 2.20437 0.138 0.1364
 0.73234 0.6714 0.6714 0 0
 0.75038
     8479.00000 8.48365 84.6192 152.088 22.9703
 0.23526 0.24855 2.20625 0.1489 0.1472
 0.72999 0.6817 0.6817 0 0
 0.75145
     8479.50000 8.4755 84.5038 152.518 22.533
 0.24154 0.25112 2.20351 0.16065 0.1583
 0.72935 0.6916 0.6916 0 0.00011
 0.74877
     8480.00000 8.48523 85.1318 152.647 20.3741
 0.241 0.25937 2.19512 0.16793 0.1692
 0.7357 0.7009 0.7009 0.00283 0.00594
 0.73186
     8480.50000 8.49808 85.3756 152.932 20.0414
 0.24484 0.26748 2.18397 0.16951 0.1728
 0.7604 0.7039 0.7039 0.00546 0.00871
 0.71836
     8481.00000 8.50033 85.4819 152.967 20.4762
 0.2475 0.26943 2.17683 0.16992 0.1722
 0.75205 0.7034 0.7034 0.00372 0.00653
 0.72032
     8481.50000 8.49007 85.4085 153.132 21.2348
 0.24397 0.26826 2.17307 0.16862 0.17
 0.71709 0.7016 0.7016 0.00219 0.00363
 0.72592
     8482.00000 8.48741 86.3709 153.377 21.0466
 0.23976 0.26419 2.17519 0.16842 0.1684
 0.69477 0.678 0.678 0 0
 0.73581
     8482.50000 8.48576 86.7798 153.376 19.8123
 0.24192 0.26496 2.16996 0.1669 0.1658
 0.70847 0.689 0.689 0 0
 0.73504
     8483.00000 8.48479 85.9124 153.386 18.8547
 0.24364 0.27065 2.16436 0.1646 0.1657
 0.71011 0.6958 0.6958 0 0.00014
 0.72921
     8483.50000 8.49337 86.2271 153.746 18.7493
 0.24689 0.27226 2.16353 0.16577 0.1669
 0.7035 0.6885 0.6885 0 0.00181
 0.72592
     8484.00000 8.49337 86.0526 153.55 19.9936
 0.24065 0.27452 2.16649 0.16593 0.1706
 0.6919 0.687 0.687 0.00701 0.00912
 0.70935
     8484.50000 8.48274 85.7919 153.507 21.0811
 0.2426 0.26933 2.16836 0.16948 0.1708
 0.7006 0.6864 0.6864 0 0.00021
 0.73046
     8485.00000 8.48174 85.7369 153.507 22.148
 0.2422 0.26987 2.1663 0.16932 0.1705
 0.6878 0.674 0.674 0.00033 0
 0.7298
     8485.50000 8.49051 85.4324 153.171 22.4579
 0.24353 0.26315 2.17136 0.17518 0.1722
 0.67467 0.6518 0.6518 0 0
 0.73685
     8486.00000 8.47976 85.1727 153.147 22.1714
 0.24837 0.2613 2.17809 0.18022 0.1761
 0.66498 0.6376 0.6376 0 0
 0.7387
     8486.50000 8.4808 85.7863 153.291 22.5203
 0.24992 0.26175 2.18733 0.18516 0.183
 0.67114 0.6452 0.6452 0.00271 0.00148
 0.73406
     8487.00000 8.49226 85.4213 153.023 22.0176
 0.24299 0.2629 2.18906 0.18978 0.1908
 0.69752 0.6796 0.6796 0.00613 0.00564
 0.72533
     8487.50000 8.47951 85.2158 152.79 22.6183
 0.23807 0.26174 2.18723 0.19341 0.1944
 0.70855 0.6927 0.6927 0.0028 0.00208
 0.73339
     8488.00000 8.4914 85.2572 152.527 21.539
 0.23501 0.25078 2.18546 0.20187 0.1942
 0.73128 0.6996 0.6996 0 0
 0.74922
     8488.50000 8.50868 85.1718 152.788 21.8913
 0.24059 0.25339 2.18074 0.19857 0.1905
 0.73116 0.6966 0.6966 0 0
 0.74661
     8489.00000 8.51353 85.7359 152.74 21.1683
 0.235 0.2548 2.18583 0.19723 0.193
 0.7076 0.6832 0.6832 0 0
 0.7452
     8489.50000 8.50279 85.7882 152.817 20.9028
 0.23198 0.25367 2.18979 0.19992 0.1967
 0.71611 0.6939 0.6939 0 0
 0.74633
     8490.00000 8.48646 85.3653 152.858 20.7183
 0.23555 0.25894 2.18961 0.19911 0.1992
 0.72126 0.7039 0.7039 0 0
 0.74106
     8490.50000 8.49886 85.46 152.691 20.4449
 0.24709 0.26595 2.18022 0.19758 0.1977
 0.73885 0.7182 0.7182 0 0.00249
 0.73157
     8491.00000 8.49722 84.6593 151.178 18.9501
 0.24822 0.27306 2.17043 0.19278 0.1954
 0.72158 0.7081 0.7081 0.00167 0.00657
 0.7187
     8491.50000 8.50161 84.0405 150.263 18.5126
 0.24105 0.26497 2.1713 0.19479 0.1934
 0.72744 0.7078 0.7078 0 0
 0.73503
     8492.00000 8.50279 83.3768 149.212 18.6289
 0.21863 0.256 2.19226 0.19227 0.1959
 0.73982 0.7218 0.7218 0 0
 0.744
     8492.50000 8.48949 83.0982 148.082 20.957
 0.20925 0.23758 2.22415 0.19715 0.1973
 0.77283 0.7228 0.7228 0 0
 0.76242
     8493.00000 8.50364 82.2954 147.777 22.0879
 0.20496 0.22678 2.24971 0.19978 0.1994
 0.80038 0.7243 0.7243 0 0
 0.77322
     8493.50000 8.52634 81.3831 147.497 22.2
 0.2126 0.22666 2.24755 0.19954 0.1959
 0.79717 0.7218 0.7218 0 0
 0.77334
     8494.00000 8.52058 82.1562 147.937 21.2379
 0.22283 0.23564 2.22864 0.196 0.1917
 0.78034 0.7186 0.7186 0 0
 0.76436
     8494.50000 8.50525 82.2558 146.99 19.1873
 0.21839 0.24391 2.21014 0.19576 0.1945
 0.75756 0.7208 0.7208 0 0
 0.75609
     8495.00000 8.50567 81.2436 146.435 18.8249
 0.22343 0.2438 2.20726 0.19967 0.1959
 0.75161 0.7218 0.7218 0 0
 0.7562
     8495.50000 8.50964 81.4055 145.722 18.9831
 0.2273 0.24634 2.21087 0.20231 0.2005
 0.76171 0.7251 0.7251 0 0
 0.75366
     8496.00000 8.50888 80.8406 144.869 18.3953
 0.23565 0.24939 2.21287 0.20326 0.202
 0.74933 0.7246 0.7246 0 0.00205
 0.74856
     8496.50000 8.52673 78.0675 139.733 17.5048
 0.22238 0.24956 2.21468 0.20338 0.2069
 0.75655 0.7297 0.7297 0 0.00331
 0.74713
     8497.00000 8.53105 75.7483 137.045 16.8219
 0.2091 0.24101 2.22803 0.20526 0.2096
 0.74981 0.7316 0.7316 0 0
 0.75899
     8497.50000 8.51456 74.5512 135.892 17.1733
 0.19092 0.22525 2.25222 0.20928 0.213
 0.75026 0.7339 0.7339 0 0
 0.77475
     8498.00000 8.4986 73.9146 134.911 18.0502
 0.17658 0.20614 2.28097 0.21628 0.2157
 0.74562 0.7358 0.7358 0 0
 0.79386
     8498.50000 8.50985 73.8352 133.497 18.5875
 0.16702 0.19244 2.31106 0.22716 0.2257
 0.70229 0.695 0.695 0 0
 0.80756
     8499.00000 8.5075 74.2841 133.371 18.6546
 0.16839 0.186 2.3343 0.24579 0.2439
 0.64838 0.6356 0.6356 0 0
 0.814
     8499.50000 8.51421 74.4358 134.716 17.5232
 0.17431 0.18662 2.34118 0.26845 0.2665
 0.66703 0.6484 0.6484 0 0.00062
 0.81276
     8500.00000 8.51221 77.1826 137.747 17.0419
 0.18779 0.19736 2.32484 0.26954 0.2683
 0.71257 0.6899 0.6899 0 0.00419
 0.79845
     8500.50000 8.51044 79.7635 140.956 16.654
 0.19403 0.2167 2.29774 0.26003 0.27
 0.75441 0.7523 0.7523 0.00258 0.01406
 0.76667
     8501.00000 8.5075 81.0572 143.451 16.8017
 0.20443 0.22875 2.27386 0.25907 0.2689
 0.76886 0.7667 0.7667 0.00369 0.01441
 0.75315
     8501.50000 8.50388 83.5376 146.523 17.0164
 0.20949 0.24128 2.25178 0.24602 0.2591
 0.78255 0.7633 0.7633 0.00739 0.01666
 0.73467
     8502.00000 8.50279 85.0773 148.718 17.2129
 0.21808 0.24676 2.22721 0.23412 0.2403
 0.80496 0.7519 0.7519 0 0.00461
 0.74862
     8502.50000 8.49101 85.4044 150.611 16.8455
 0.2257 0.26134 2.20447 0.21342 0.2233
 0.78736 0.7409 0.7409 0.00149 0.01125
 0.72593
     8503.00000 8.49232 85.6525 152.036 16.5496
 0.23575 0.25886 2.19005 0.21458 0.2144
 0.77113 0.735 0.735 0 0
 0.74114
     8503.50000 8.48499 86.4865 153.235 16.1481
 0.24187 0.26679 2.17905 0.20506 0.2067
 0.73326 0.7185 0.7185 0 0.00225
 0.73095
     8504.00000 8.48856 85.6182 153.693 17.1881
 0.24459 0.26868 2.16966 0.20105 0.201
 0.73868 0.7207 0.7207 0 0
 0.73132
     8504.50000 8.4969 85.6019 153.131 17.861
 0.24206 0.27282 2.16555 0.19728 0.2003
 0.75622 0.725 0.725 0 0.00026
 0.72692
     8505.00000 8.49064 85.5515 152.618 18.6443
 0.23305 0.26733 2.16863 0.19858 0.2004
 0.75821 0.7251 0.7251 0 0
 0.73267
     8505.50000 8.49948 85.465 152.056 19.1649
 0.23006 0.26218 2.17051 0.1975 0.1967
 0.75374 0.7223 0.7223 0 0
 0.73782
     8506.00000 8.49337 85.3641 151.721 19.5953
 0.22882 0.25875 2.17326 0.19617 0.1937
 0.73618 0.7188 0.7188 0 0
 0.74125
