~VERSION INFORMATION
 VERS. 2.0 :CWLS Log Ascii Standard - version 2.0
 WRAP. YES :Multiple Lines per Depth
~WELL INFORMATION
#MNEMONIC .UNIT                              VALUE :DESCRIPTION
#-------------------------------------------------------------------
STRT    .ft                                   90 : Start depth
STOP    .ft                               8789.5 : Stop depth
STEP    .ft                                    0 : Step (0=none)
NULL    .ft                               -999.25 : Null value
WELL    .                            BU-564-1-1V : Well name
COMP    .                                   ADCO : Company name
FLD     .                                 buhasa : Field name
LOC     .                                        : Well location
PROV    .                                        : n/a
STAT    .                                        : State
CNTY    .                                        : County
CTRY    .                                        : Country
DATE    .                                        : Log date
UWI     .                              BU564101V : Unique Well Id
LIC     .                                        : n/a
API     .                                        : n/a
SRVC    .                                        : Service company
LONG    .DEG                           53.331030 : n/a
LATI    .DEG                           23.517034 : n/a
XWELL   .M                         738019.340000 : Surface X
YWELL   .M                        2602472.960000 : Surface Y
LAT     .                                        : Latitude
LON     .                                        : Longitude
ELEV    .m                                     0 : Surface elevation
~CURVE INFORMATION
#MNEMONIC             .UNIT               API CODE :DESCRIPTION
#-------------------------------------------------------------------
 DEPTH                .FT                          :Depth
 CALI                 .IN                          :Anonymous
 DTCORRFINAL          .US/FT                       :Sonic
 DTSCORRFINAL         .US/FT                       :Sonic
 GR                   .API                         :Gamma ray
 NPHI                 .V/V                         :Anonymous
 PHIE                 .                            :Porosity
 RHOBCORRFINAL        .G/CM3                       :Density
 SW                   .V/V                         :Anonymous
 SWQ                  .FRAC                        :Anonymous
 SXO                  .V/V                         :Anonymous
 SXOQ                 .FRAC                        :Anonymous
 SXOQ                 .                            :Water saturation
 VCL                  .V/V                         :Anonymous
 VDOL                 .V/V                         :Anonymous
 VLIM                 .V/V                         :Anonymous
~A Log Data Section - Number of Curves = 16
# ...
     8706.00000 8.47654 82.6465 154.062 17.3981
 0.23611 0.248 2.28961 0.92883 0.9181
 0.93809 0.9326 0.9326 0 0
 0.752
     8706.50000 8.48926 82.2487 153.407 17.2784
 0.23259 0.24737 2.28837 0.93853 0.9286
 0.97531 0.9719 0.9719 0 0
 0.75263
     8707.00000 8.48394 80.9488 152.515 16.9054
 0.22244 0.24017 2.27629 0.96582 0.9562
 0.96582 0.9625 0.9625 0 0
 0.75983
     8707.50000 8.48866 79.6677 150.274 16.5151
 0.21879 0.23753 2.28361 0.96094 0.9709
 0.96094 0.9709 0.9709 0 0
 0.76247
     8708.00000 8.49337 78.934 148.972 15.7644
 0.21742 0.2367 2.28873 0.96819 0.9744
 0.96819 0.9744 0.9744 0 0
 0.7633
     8708.50000 8.49337 78.963 147.159 15.8886
 0.22096 0.23591 2.31511 0.96725 0.9649
 1 0.9929 0.9929 0 0
 0.76409
     8709.00000 8.48512 78.4056 145.61 16.2681
 0.22564 0.23508 2.31365 0.94661 0.9363
 1 0.9869 0.9869 0 0
 0.76492
     8709.50000 8.48206 77.1847 143.276 16.7801
 0.22201 0.23927 2.3159 0.90167 0.9183
 0.99793 0.9831 0.9831 0 0.01303
 0.74771
     8710.00000 8.47721 75.4532 140.7 16.9771
 0.21901 0.2364 2.31677 0.88983 0.904
 1 0.98 0.98 0 0.00802
 0.75558
     8710.50000 8.49494 73.7388 138.934 17.174
 0.20895 0.23317 2.32466 0.87915 0.9077
 0.99615 0.9808 0.9808 0 0.01246
 0.75437
     8711.00000 8.49921 71.7469 136.325 15.6441
 0.203 0.22333 2.32997 0.89042 0.9006
 1 0.9793 0.9793 0 0
 0.77667
     8711.50000 8.48175 70.702 133.204 15.5336
 0.19461 0.21436 2.34595 0.89907 0.9106
 1 0.9815 0.9815 0 0
 0.78564
     8712.00000 8.52163 70.4084 133.923 15.6945
 0.18366 0.20293 2.36983 0.93022 0.9468
 1 0.9891 0.9891 0 0
 0.79707
     8712.50000 8.54204 69.7436 134.134 17.316
 0.17218 0.18928 2.39718 0.99628 1
 1 1 1 0 0.00424
 0.80648
     8713.00000 8.55064 70.6144 135.536 18.6773
 0.16271 0.17628 2.40121 1 1
 1 1 1 0 0.00419
 0.81954
     8713.50000 8.54186 72.0487 137.773 19.3638
 0.17297 0.17929 2.40568 1 1
 1 1 1 0 0.01612
 0.80459
     8714.00000 8.53015 74.6499 142.887 18.7866
 0.19333 0.19283 2.39201 1 1
 1 1 1 0 0.02464
 0.78253
     8714.50000 8.50152 75.8806 145.444 18.1562
 0.20703 0.21435 2.3645 1 1
 1 1 1 0 0.03478
 0.75087
     8715.00000 8.50556 76.8455 146.36 17.2478
 0.22056 0.2288 2.34179 1 1
 1 1 1 0 0.03134
 0.73986
     8715.50000 8.5035 78.0171 149.018 16.4454
 0.2281 0.23797 2.32566 1 1
 1 1 1 0 0.02608
 0.73595
     8716.00000 8.50062 79.1262 151.07 16.0053
 0.23532 0.24367 2.3115 1 1
 1 1 1 0 0.01337
 0.74295
     8716.50000 8.49808 79.8715 151.987 16.0347
 0.23892 0.25121 2.30265 1 1
 1 1 1 0 0.02353
 0.72526
     8717.00000 8.5075 79.9046 152.44 15.5785
 0.24237 0.25585 2.29908 1 1
 1 1 1 0 0.03089
 0.71326
     8717.50000 8.50279 79.9142 152.394 16.4023
 0.24201 0.25992 2.29742 1 1
 1 1 1 0 0.04295
 0.69713
     8718.00000 8.50232 79.8708 152.281 16.3096
 0.23927 0.25757 2.29794 1 1
 1 1 1 0 0.0331
 0.70933
     8718.50000 8.5009 79.7063 151.628 16.6013
 0.24193 0.25533 2.29585 1 1
 1 1 1 0 0.03382
 0.71085
     8719.00000 8.49808 79.0754 150.411 15.7654
 0.24693 0.25275 2.29916 1 1
 1 1 1 0 0.03043
 0.71682
     8719.50000 8.50188 78.9713 149.795 15.9377
 0.24388 0.25736 2.30268 1 1
 1 1 1 0 0.05455
 0.68809
     8720.00000 8.5075 78.4313 149.652 15.833
 0.23848 0.25149 2.31555 1 1
 1 1 1 0 0.05788
 0.69063
     8720.50000 8.49808 78.8337 150.135 15.7408
 0.24357 0.2486 2.32554 1 1
 1 1 1 0 0.06155
 0.68984
     8721.00000 8.47887 79.6914 151.387 15.9816
 0.24877 0.24952 2.32413 1 1
 1 1 1 0 0.0581
 0.69238
     8721.50000 8.48866 81.1298 154.97 16.506
 0.25028 0.25775 2.30524 1 1
 1 1 1 0 0.03995
 0.7023
     8722.00000 8.48866 81.6114 155.691 17.0315
 0.2496 0.26192 2.28697 1 1
 1 1 1 0 0.02437
 0.71372
     8722.50000 8.49262 82.0249 156.164 16.1353
 0.24734 0.2673 2.27663 1 1
 1 1 1 0 0.02444
 0.70826
     8723.00000 8.49494 81.9695 156.435 15.6394
 0.25375 0.26768 2.27859 1 1
 1 1 1 0 0.03561
 0.69671
     8723.50000 8.49808 81.9938 154.93 15.2463
 0.25932 0.26561 2.27831 1 1
 1 1 1 0 0.04512
 0.68927
     8724.00000 8.49337 80.3545 153.279 14.9619
 0.26007 0.26263 2.27936 0.99485 1
 0.99485 1 1 0.00245 0.04732
 0.6876
     8724.50000 8.4969 80.3323 153.348 16.0396
 0.25257 0.26561 2.27795 0.98156 1
 0.98156 1 1 0.00905 0.05679
 0.66854
     8725.00000 8.49525 80.2695 153.686 15.7837
 0.251 0.26503 2.28109 0.99583 1
 0.99583 1 1 0.00929 0.05844
 0.66724
     8725.50000 8.48866 80.3799 153.75 14.8424
 0.24235 0.26311 2.28813 1 1
 1 1 1 0.00254 0.0587
 0.67564
     8726.00000 8.49619 80.0519 153.712 14.2361
 0.24078 0.26182 2.29766 1 1
 1 1 1 0 0.06186
 0.67632
     8726.50000 8.50279 80.0737 153.629 14.5443
 0.24182 0.26157 2.30515 1 1
 1 1 1 0 0.0636
 0.67483
     8727.00000 8.50407 80.0892 153.834 15.3243
 0.24066 0.26773 2.30229 1 1
 1 1 1 0.004 0.07997
 0.64829
     8727.50000 8.48955 80.0509 153.871 15.9144
 0.23707 0.2685 2.30021 1 1
 1 1 1 0 0.07471
 0.65679
     8728.00000 8.48182 80.025 153.516 14.9082
 0.22888 0.26663 2.29484 1 1
 1 1 1 0 0.05701
 0.67636
     8728.50000 8.49337 79.7656 152.129 14.2967
 0.23222 0.26389 2.29892 1 1
 1 1 1 0 0.0497
 0.68641
     8729.00000 8.50263 79.1283 151.434 14.0843
 0.23516 0.26155 2.29521 1 1
 1 1 1 0 0.04179
 0.69666
     8729.50000 8.49808 77.9587 150.014 15.3128
 0.23712 0.25508 2.29966 1 1
 1 1 1 0 0.03148
 0.71343
     8730.00000 8.50279 76.7833 147.139 17.291
 0.23395 0.24922 2.3018 1 1
 1 1 1 0 0.02145
 0.72933
     8730.50000 8.49851 75.1992 143.332 17.1197
 0.22978 0.24433 2.31385 1 1
 1 1 1 0 0.02654
 0.72913
     8731.00000 8.50481 72.1861 137.784 17.1509
 0.21276 0.23234 2.33107 1 1
 1 1 1 0 0.02104
 0.74661
     8731.50000 8.5043 69.3306 133.469 17.182
 0.19236 0.21439 2.35404 1 1
 1 1 1 0 0.00966
 0.77595
     8732.00000 8.51221 68.0828 129.963 17.1947
 0.17141 0.19623 2.38263 1 1
 1 1 1 0 0.0099
 0.79387
     8732.50000 8.51173 67.2572 129.153 17.0044
 0.15805 0.18043 2.40644 1 1
 1 1 1 0 0.0105
 0.80906
     8733.00000 8.50413 68.114 130.921 16.6993
 0.15663 0.17523 2.42337 1 1
 1 1 1 0 0.02125
 0.80352
     8733.50000 8.5075 71.2654 135.932 15.6853
 0.16795 0.18672 2.42052 1 1
 1 1 1 0 0.03974
 0.77354
     8734.00000 8.51234 74.34 141.776 16.8722
 0.18134 0.20623 2.3955 1 1
 1 1 1 0 0.04799
 0.74578
     8734.50000 8.50467 76.4071 146.455 16.9266
 0.19864 0.2261 2.3586 1 1
 1 1 1 0 0.04302
 0.73088
     8735.00000 8.50593 80.1001 149.787 17.0982
 0.21172 0.24039 2.32681 1 1
 1 1 1 0 0.03021
 0.72939
     8735.50000 8.5024 81.9199 158.277 16.2631
 0.22226 0.25035 2.31129 1 1
 1 1 1 0 0.02843
 0.72121
     8736.00000 8.5075 82.6781 160.014 15.9979
 0.22402 0.25437 2.30313 1 1
 1 1 1 0 0.02061
 0.72503
     8736.50000 8.50142 83.6428 162.234 15.649
 0.23713 0.25938 2.29469 1 1
 1 1 1 0 0.02032
 0.72031
     8737.00000 8.49938 83.8479 162.707 15.3617
 0.24963 0.26043 2.29028 1 1
 1 1 1 0 0.01152
 0.72805
     8737.50000 8.48704 85.1298 165.673 15.3261
 0.25025 0.26688 2.28421 1 1
 1 1 1 0 0.0237
 0.70942
     8738.00000 8.49371 85.8072 167.248 15.0674
 0.25065 0.27021 2.28159 1 1
 1 1 1 0 0.02875
 0.70104
     8738.50000 8.4812 86.5642 169.013 13.6098
 0.25128 0.27387 2.27268 1 1
 1 1 1 0 0.02752
 0.69861
     8739.00000 8.49808 86.6686 169.257 13.8316
 0.25134 0.27437 2.26874 1 1
 1 1 1 0 0.02022
 0.70541
     8739.50000 8.49337 86.7461 169.438 14.7714
 0.25111 0.27474 2.27156 1 1
 1 1 1 0 0.02437
 0.70089
     8740.00000 8.5021 87.0425 170.132 14.6539
 0.2518 0.27615 2.27553 1 1
 1 1 1 0 0.03612
 0.68773
     8740.50000 8.48828 86.2606 168.304 14.519
 0.25225 0.27241 2.27291 1 1
 1 1 1 0 0.01783
 0.70976
     8741.00000 8.4929 86.7964 169.556 14.3841
 0.25477 0.27498 2.26482 1 1
 1 1 1 0 0.01781
 0.70721
     8741.50000 8.48577 86.9119 169.826 14.2492
 0.25013 0.27553 2.26096 1 1
 1 1 1 0 0.01494
 0.70953
     8742.00000 8.49808 86.7126 169.36 14.1143
 0.24658 0.27458 2.26527 1 1
 1 1 1 0 0.01753
 0.70789
     8742.50000 8.50396 85.7764 167.176 13.9794
 0.24641 0.27006 2.27263 1 1
 1 1 1 0 0.00791
 0.72203
     8743.00000 8.47923 86.5475 168.974 13.9323
 0.25645 0.27379 2.27575 1 1
 1 1 1 0 0.02652
 0.69968
     8743.50000 8.47899 87.5603 171.345 14.0999
 0.26156 0.27859 2.27341 1 1
 1 1 1 0 0.03995
 0.68146
