~VERSION INFORMATION
 VERS. 2.0 :CWLS Log Ascii Standard - version 2.0
 WRAP. YES :Multiple Lines per Depth
~WELL INFORMATION
#MNEMONIC .UNIT                              VALUE :DESCRIPTION
#-------------------------------------------------------------------
STRT    .ft                                   90 : Start depth
STOP    .ft                               8789.5 : Stop depth
STEP    .ft                                    0 : Step (0=none)
NULL    .ft                               -999.25 : Null value
WELL    .                            BU-564-1-1V : Well name
COMP    .                                   ADCO : Company name
FLD     .                                 buhasa : Field name
LOC     .                                        : Well location
PROV    .                                        : n/a
STAT    .                                        : State
CNTY    .                                        : County
CTRY    .                                        : Country
DATE    .                                        : Log date
UWI     .                              BU564101V : Unique Well Id
LIC     .                                        : n/a
API     .                                        : n/a
SRVC    .                                        : Service company
LONG    .DEG                           53.331030 : n/a
LATI    .DEG                           23.517034 : n/a
XWELL   .M                         738019.340000 : Surface X
YWELL   .M                        2602472.960000 : Surface Y
LAT     .                                        : Latitude
LON     .                                        : Longitude
ELEV    .m                                     0 : Surface elevation
~CURVE INFORMATION
#MNEMONIC             .UNIT               API CODE :DESCRIPTION
#-------------------------------------------------------------------
 DEPTH                .FT                          :Depth
 CALI                 .IN                          :Anonymous
 DTCORRFINAL          .US/FT                       :Sonic
 DTSCORRFINAL         .US/FT                       :Sonic
 GR                   .API                         :Gamma ray
 NPHI                 .V/V                         :Anonymous
 PHIE                 .                            :Porosity
 RHOBCORRFINAL        .G/CM3                       :Density
 SW                   .V/V                         :Anonymous
 SWQ                  .FRAC                        :Anonymous
 SXO                  .V/V                         :Anonymous
 SXOQ                 .FRAC                        :Anonymous
 SXOQ                 .                            :Water saturation
 VCL                  .V/V                         :Anonymous
 VDOL                 .V/V                         :Anonymous
 VLIM                 .V/V                         :Anonymous
~A Log Data Section - Number of Curves = 16
# ...
     8506.50000 8.49017 85.1155 151.386 19.5823
 0.23797 0.2604 2.17793 0.19839 0.1959
 0.72997 0.7082 0.7082 0 0
 0.7396
     8507.00000 8.48908 85.109 151.236 19.2091
 0.24339 0.26806 2.18254 0.20488 0.2079
 0.70652 0.6936 0.6936 0.00236 0.00698
 0.72261
     8507.50000 8.48514 85.5227 151.95 18.0825
 0.24439 0.26936 2.18209 0.2183 0.2217
 0.70696 0.6945 0.6945 0.00025 0.00714
 0.72325
     8508.00000 8.49808 85.4246 152.157 17.0569
 0.24177 0.26653 2.17805 0.23359 0.2337
 0.72945 0.7124 0.7124 0 0
 0.73347
     8508.50000 8.49755 85.2982 150.5 16.0444
 0.23825 0.27177 2.16941 0.23538 0.2386
 0.72687 0.718 0.718 0 0
 0.72823
     8509.00000 8.4864 84.9941 150.577 16.5796
 0.23925 0.27272 2.16604 0.23395 0.2366
 0.72163 0.7119 0.7119 0 0
 0.72728
     8509.50000 8.48651 85.2292 152.31 17.8074
 0.2275 0.27795 2.16415 0.22426 0.2347
 0.6993 0.7083 0.7083 0 0.00618
 0.71586
     8510.00000 8.48223 85.7908 153.754 18.7154
 0.22232 0.26506 2.17023 0.22875 0.2315
 0.73303 0.7295 0.7295 0 0
 0.73494
     8510.50000 8.4918 85.9456 153.96 20.2271
 0.22287 0.25975 2.18115 0.22668 0.2281
 0.74432 0.7363 0.7363 0 0
 0.74025
     8511.00000 8.49729 86.4171 154.331 20.9754
 0.22888 0.25323 2.18829 0.22695 0.2229
 0.79636 0.7406 0.7406 0 0
 0.74677
     8511.50000 8.49264 86.6134 154.25 20.2854
 0.23498 0.25678 2.18696 0.22166 0.2187
 0.81355 0.7379 0.7379 0 0
 0.74322
     8512.00000 8.48529 86.3769 153.759 18.8812
 0.23155 0.25878 2.18399 0.22009 0.2191
 0.83667 0.7382 0.7382 0 0
 0.74122
     8512.50000 8.48576 86.6817 154.457 18.4471
 0.2379 0.25916 2.18198 0.22485 0.2215
 0.83405 0.7397 0.7397 0 0
 0.74084
     8513.00000 8.49101 87.0167 155.158 19.0381
 0.24555 0.2624 2.18459 0.23007 0.2278
 0.83825 0.7439 0.7439 0 0
 0.7376
     8513.50000 8.49394 87.1368 155.443 21.2792
 0.25168 0.268 2.18094 0.23546 0.2351
 0.81207 0.7486 0.7486 0 0.00135
 0.73065
     8514.00000 8.49148 87.2272 155.759 21.0903
 0.25369 0.27092 2.17955 0.24551 0.2464
 0.80691 0.7557 0.7557 0.00129 0.00468
 0.72311
     8514.50000 8.48159 87.216 155.846 20.0277
 0.24777 0.26969 2.17919 0.26079 0.2619
 0.80041 0.7649 0.7649 0 0.00162
 0.72869
     8515.00000 8.49092 87.2464 155.9 18.4043
 0.24836 0.26628 2.18478 0.27899 0.2776
 0.82513 0.7739 0.7739 0 0
 0.73372
     8515.50000 8.49916 87.0396 155.579 18.2843
 0.24676 0.27348 2.18695 0.28449 0.2923
 0.82432 0.7819 0.7819 0.00343 0.01116
 0.71193
     8516.00000 8.49035 87.1953 155.868 17.6763
 0.25123 0.27492 2.18612 0.29251 0.2996
 0.81804 0.7858 0.7858 0.00437 0.01269
 0.70802
     8516.50000 8.49808 86.9876 155.68 18.4699
 0.25094 0.2764 2.18525 0.2976 0.306
 0.81649 0.7891 0.7891 0.00822 0.01435
 0.70104
     8517.00000 8.49232 87.2768 155.888 17.7644
 0.25077 0.26898 2.18994 0.31195 0.3133
 0.8177 0.7929 0.7929 0 0.00475
 0.72627
     8517.50000 8.48394 87.6262 156.096 18.562
 0.25577 0.26782 2.19462 0.31925 0.3187
 0.8202 0.7935 0.7935 0 0.00622
 0.72596
     8518.00000 8.47888 87.7832 156.751 17.7433
 0.25669 0.26765 2.19215 0.3261 0.3235
 0.82316 0.7933 0.7933 0 0.00311
 0.72924
     8518.50000 8.493 87.8514 156.924 16.8467
 0.25233 0.27203 2.18311 0.32983 0.3306
 0.83414 0.8014 0.8014 0 0.00176
 0.72621
     8519.00000 8.48237 88.0608 157.475 14.6174
 0.24266 0.27234 2.17651 0.33786 0.34
 0.85839 0.8059 0.8059 0 0
 0.72766
     8519.50000 8.48897 87.9525 157.128 12.989
 0.23826 0.27291 2.17488 0.34453 0.3483
 0.83868 0.8098 0.8098 0 0
 0.72709
     8520.00000 8.49337 87.7886 156.835 12.7572
 0.24247 0.26804 2.17898 0.3598 0.3563
 0.8439 0.8135 0.8135 0 0
 0.73196
     8520.50000 8.4863 87.6103 156.752 14.2325
 0.24057 0.26628 2.1885 0.37074 0.3692
 0.80992 0.7903 0.7903 0 0
 0.73372
     8521.00000 8.48489 88.1656 156.817 15.4109
 0.23949 0.26326 2.18951 0.38506 0.3796
 0.8344 0.8094 0.8094 0 0
 0.73674
     8521.50000 8.48834 88.116 156.849 17.0032
 0.2387 0.2681 2.19053 0.39282 0.3949
 0.8271 0.8124 0.8124 0 0
 0.7319
     8522.00000 8.48074 88.5027 157.207 15.3955
 0.24297 0.26687 2.19336 0.41219 0.4108
 0.86397 0.837 0.837 0 0
 0.73313
     8522.50000 8.48394 88.2512 157.588 14.3411
 0.24957 0.26715 2.19458 0.42628 0.4214
 0.87967 0.8413 0.8413 0 0
 0.73285
     8523.00000 8.47923 88.7597 157.97 13.2036
 0.25037 0.27591 2.19489 0.42545 0.4341
 0.8746 0.8463 0.8463 0 0.00824
 0.71584
     8523.50000 8.49808 88.4587 157.675 13.8424
 0.24964 0.28145 2.18954 0.4243 0.4389
 0.86545 0.8482 0.8482 0 0.0125
 0.70606
     8524.00000 8.45677 88.3635 157.184 13.6066
 0.24241 0.28415 2.18757 0.42125 0.4431
 0.86472 0.8498 0.8498 0 0.01486
 0.701
     8524.50000 8.47452 88.0117 156.315 12.5967
 0.23722 0.27679 2.18617 0.42555 0.4381
 0.87437 0.8478 0.8478 0 0.00154
 0.72168
     8525.00000 8.48237 87.5891 155.584 12.4047
 0.23181 0.27273 2.1828 0.41906 0.4267
 0.87808 0.8434 0.8434 0 0
 0.72727
     8525.50000 8.49454 86.4525 154.384 14.0135
 0.23625 0.26383 2.18508 0.41879 0.4114
 0.88802 0.8373 0.8373 0 0
 0.73617
     8526.00000 8.46995 86.2722 154.333 14.8571
 0.23827 0.26832 2.18698 0.39681 0.3977
 0.85626 0.8316 0.8316 0 0
 0.73168
     8526.50000 8.49663 86.3932 154.472 15.0473
 0.23643 0.26845 2.19281 0.38494 0.3905
 0.83237 0.8226 0.8226 0 0
 0.73155
     8527.00000 8.49054 86.5491 154.28 14.0799
 0.22695 0.26451 2.19833 0.38184 0.3898
 0.83279 0.8283 0.8283 0 0
 0.73549
     8527.50000 8.50279 85.6649 154.801 14.5015
 0.22725 0.25711 2.20072 0.38598 0.3838
 0.8398 0.8221 0.8221 0 0
 0.74289
     8528.00000 8.50179 87.3818 155.31 14.5325
 0.22585 0.2553 2.19795 0.38304 0.3777
 0.84333 0.8221 0.8221 0 0
 0.7447
     8528.50000 8.502 87.4392 155.801 14.9244
 0.23564 0.25342 2.19219 0.38132 0.3654
 0.85079 0.8115 0.8115 0 0
 0.74658
     8529.00000 8.49808 87.8243 156.312 14.9786
 0.23321 0.25812 2.18789 0.37143 0.3622
 0.86668 0.8162 0.8162 0 0
 0.74188
     8529.50000 8.49337 87.8272 156.723 13.9894
 0.24291 0.26163 2.18748 0.36582 0.3571
 0.84993 0.8139 0.8139 0 0
 0.73837
     8530.00000 8.49101 87.5835 157.039 13.33
 0.24473 0.27704 2.1853 0.34722 0.3582
 0.85146 0.8144 0.8144 0 0.00835
 0.71461
     8530.50000 8.50176 87.6192 157.74 13.28
 0.25728 0.27772 2.18472 0.35017 0.3558
 0.84743 0.8133 0.8133 0 0.00955
 0.71273
     8531.00000 8.50279 88.0495 158.097 13.5745
 0.25012 0.27666 2.18384 0.35605 0.363
 0.86184 0.8165 0.8165 0 0.00556
 0.71778
     8531.50000 8.50926 88.2436 158.267 13.8693
 0.2424 0.26006 2.18879 0.38387 0.3724
 0.8712 0.8207 0.8207 0 0
 0.73994
     8532.00000 8.51246 88.2841 158.363 13.1449
 0.23653 0.25584 2.18991 0.39471 0.3796
 0.88431 0.8239 0.8239 0 0
 0.74416
     8532.50000 8.5115 88.6288 158.416 13.6018
 0.23841 0.2621 2.18773 0.38971 0.3822
 0.88947 0.825 0.825 0 0
 0.7379
     8533.00000 8.50824 89.4632 158.556 13.8216
 0.25033 0.26884 2.18056 0.38418 0.3772
 0.89366 0.8228 0.8228 0 0
 0.73116
     8533.50000 8.52484 89.8163 158.515 13.8436
 0.25378 0.27873 2.17388 0.37502 0.3774
 0.86587 0.8229 0.8229 0 0
 0.72127
     8534.00000 8.51625 89.6647 158.523 13.5768
 0.25933 0.27902 2.17029 0.37934 0.3775
 0.85226 0.823 0.823 0 0
 0.72098
     8534.50000 8.51593 89.7683 158.861 13.2707
 0.25346 0.28166 2.16883 0.38043 0.3842
 0.8407 0.8259 0.8259 0 0.00073
 0.71761
     8535.00000 8.5212 89.9786 158.932 13.0883
 0.24648 0.28358 2.16986 0.38359 0.3939
 0.85311 0.83 0.83 0 0.00331
 0.71311
     8535.50000 8.52351 90.2244 159.332 12.6116
 0.24061 0.28006 2.17239 0.39484 0.404
 0.87522 0.8342 0.8342 0 0
 0.71994
     8536.00000 8.51505 89.9464 159.119 13.167
 0.24219 0.27979 2.17331 0.40255 0.4107
 0.88526 0.837 0.837 0 0
 0.72021
     8536.50000 8.50779 90.0635 159.103 13.2872
 0.25175 0.28191 2.17243 0.40776 0.4133
 0.87652 0.838 0.838 0 0
 0.71809
     8537.00000 8.52948 90.0102 159.248 13.7387
 0.25435 0.28036 2.17261 0.4196 0.4209
 0.87353 0.8411 0.8411 0 0
 0.71964
     8537.50000 8.51221 90.0602 159.095 13.4604
 0.26037 0.28162 2.17479 0.42877 0.4294
 0.86674 0.8444 0.8444 0 0.00079
 0.71759
     8538.00000 8.51221 89.6435 159.043 14.4593
 0.25734 0.28234 2.17525 0.43941 0.4424
 0.87273 0.8495 0.8495 0 0.00091
 0.71675
