~VERSION INFORMATION
 VERS. 2.0 :CWLS Log Ascii Standard - version 2.0
 WRAP. YES :Multiple Lines per Depth
~WELL INFORMATION
#MNEMONIC .UNIT                              VALUE :DESCRIPTION
#-------------------------------------------------------------------
STRT    .ft                                   90 : Start depth
STOP    .ft                               8789.5 : Stop depth
STEP    .ft                                    0 : Step (0=none)
NULL    .ft                               -999.25 : Null value
WELL    .                            BU-564-1-1V : Well name
COMP    .                                   ADCO : Company name
FLD     .                                 buhasa : Field name
LOC     .                                        : Well location
PROV    .                                        : n/a
STAT    .                                        : State
CNTY    .                                        : County
CTRY    .                                        : Country
DATE    .                                        : Log date
UWI     .                              BU564101V : Unique Well Id
LIC     .                                        : n/a
API     .                                        : n/a
SRVC    .                                        : Service company
LONG    .DEG                           53.331030 : n/a
LATI    .DEG                           23.517034 : n/a
XWELL   .M                         738019.340000 : Surface X
YWELL   .M                        2602472.960000 : Surface Y
LAT     .                                        : Latitude
LON     .                                        : Longitude
ELEV    .m                                     0 : Surface elevation
~CURVE INFORMATION
#MNEMONIC             .UNIT               API CODE :DESCRIPTION
#-------------------------------------------------------------------
 DEPTH                .FT                          :Depth
 CALI                 .IN                          :Anonymous
 DTCORRFINAL          .US/FT                       :Sonic
 DTSCORRFINAL         .US/FT                       :Sonic
 GR                   .API                         :Gamma ray
 NPHI                 .V/V                         :Anonymous
 PHIE                 .                            :Porosity
 RHOBCORRFINAL        .G/CM3                       :Density
 SW                   .V/V                         :Anonymous
 SWQ                  .FRAC                        :Anonymous
 SXO                  .V/V                         :Anonymous
 SXOQ                 .FRAC                        :Anonymous
 SXOQ                 .                            :Water saturation
 VCL                  .V/V                         :Anonymous
 VDOL                 .V/V                         :Anonymous
 VLIM                 .V/V                         :Anonymous
~A Log Data Section - Number of Curves = 16
# ...
     8382.00000 8.46981 88.9 160.654 22.4462
 0.26001 0.28063 2.14936 0.10761 0.1123
 0.79863 0.6457 0.6457 0.00059 0.00017
 0.71861
     8382.50000 8.47871 89.0491 161.339 20.561
 0.26302 0.28094 2.15335 0.10397 0.1088
 0.7993 0.6417 0.6417 0.00115 0.0042
 0.71372
     8383.00000 8.46039 89.0891 161.017 21.8671
 0.25828 0.2837 2.15219 0.09719 0.1033
 0.79791 0.6351 0.6351 0.00911 0.009
 0.69819
     8383.50000 8.46244 89.1573 160.993 22.2954
 0.25604 0.28144 2.14896 0.09136 0.0963
 0.81544 0.6262 0.6262 0 5e-05
 0.71851
     8384.00000 8.46981 89.22 160.912 22.6922
 0.25425 0.27748 2.1439 0.08807 0.091
 0.81707 0.6192 0.6192 0 0
 0.72252
     8384.50000 8.46824 88.5767 160.724 21.2974
 0.26078 0.27602 2.14062 0.08348 0.0848
 0.81261 0.6104 0.6104 0 0
 0.72398
     8385.00000 8.46609 88.3016 160.146 21.1618
 0.26062 0.28583 2.13664 0.07785 0.0816
 0.78889 0.6059 0.6059 0 0
 0.71417
     8385.50000 8.46091 88.6365 159.027 21.3858
 0.26665 0.289 2.13736 0.07706 0.0812
 0.77281 0.6052 0.6052 0.00623 0.00598
 0.69879
     8386.00000 8.47428 88.4456 159.688 21.2578
 0.25598 0.29147 2.13652 0.07955 0.0856
 0.76019 0.6117 0.6117 0.01203 0.01094
 0.68556
     8386.50000 8.45994 88.4313 159.149 20.8941
 0.25363 0.28619 2.1394 0.08548 0.0908
 0.76725 0.6189 0.6189 0.0019 0.00288
 0.70903
     8387.00000 8.46769 88.6178 159.83 19.6244
 0.24393 0.27887 2.14462 0.0918 0.0967
 0.7569 0.6268 0.6268 0 0
 0.72113
     8387.50000 8.46609 88.9173 160.703 20.2763
 0.25353 0.26812 2.14906 0.0984 0.0987
 0.77743 0.6294 0.6294 0 0
 0.73188
     8388.00000 8.46921 89.029 160.91 20.88
 0.25309 0.27005 2.14776 0.10291 0.1039
 0.7746 0.6358 0.6358 0 0
 0.72995
     8388.50000 8.45568 88.5231 161.346 22.2119
 0.26268 0.2742 2.14201 0.10657 0.1071
 0.79018 0.6397 0.6397 0 0
 0.7258
     8389.00000 8.4549 88.9558 160.856 22.2878
 0.25993 0.28214 2.14071 0.10421 0.1081
 0.78483 0.6409 0.6409 0 0
 0.71786
     8389.50000 8.46039 88.9671 160.009 22.0777
 0.26262 0.27894 2.14186 0.10132 0.1037
 0.78888 0.6356 0.6356 0 0
 0.72106
     8390.00000 8.47871 88.7742 159.642 21.9659
 0.25731 0.27964 2.14082 0.09314 0.0962
 0.78658 0.6261 0.6261 0 0
 0.72036
     8390.50000 8.46651 88.81 159.344 22.5831
 0.25374 0.27686 2.1395 0.08584 0.0881
 0.78425 0.6151 0.6151 0 0
 0.72314
     8391.00000 8.46622 88.6783 159.298 22.9473
 0.25159 0.28031 2.14194 0.07925 0.0829
 0.77278 0.6078 0.6078 0 0
 0.71969
     8391.50000 8.46849 88.7137 159.475 24.6323
 0.25567 0.28037 2.14572 0.07868 0.0823
 0.77143 0.6069 0.6069 0.00339 0
 0.71624
     8392.00000 8.48305 88.8895 159.789 24.7764
 0.26143 0.27993 2.14853 0.08232 0.0857
 0.77144 0.6117 0.6117 0.00614 0.00073
 0.7132
     8392.50000 8.47766 89.0244 160.153 24.5086
 0.26616 0.28075 2.14896 0.08966 0.093
 0.77123 0.6218 0.6218 0.00797 0.00274
 0.70853
     8393.00000 8.46724 89.0077 160.69 24.5086
 0.26315 0.28364 2.14982 0.09405 0.099
 0.7672 0.6297 0.6297 0.01569 0.00965
 0.69101
     8393.50000 8.47075 88.9922 160.439 23.3909
 0.25932 0.2824 2.1513 0.1003 0.1058
 0.77159 0.6381 0.6381 0.01141 0.00814
 0.69805
     8394.00000 8.47871 88.882 161.117 22.8856
 0.25093 0.28199 2.14907 0.10357 0.1099
 0.77663 0.643 0.643 0.00643 0.00457
 0.707
     8394.50000 8.47547 88.8578 160.256 22.6093
 0.25539 0.28258 2.14407 0.10141 0.1065
 0.77471 0.639 0.639 0.002 0.00072
 0.7147
     8395.00000 8.47845 88.9225 160.55 23.3206
 0.25398 0.28321 2.14262 0.09867 0.1039
 0.77265 0.6358 0.6358 0.0037 0.00089
 0.7122
     8395.50000 8.47932 88.7623 160.556 23.7514
 0.26818 0.28311 2.14412 0.0974 0.1009
 0.7743 0.6321 0.6321 0.00594 0.00218
 0.70877
     8396.00000 8.47585 88.1696 160.286 24.3508
 0.27284 0.28221 2.14649 0.09627 0.0991
 0.77384 0.6298 0.6298 0.00799 0.0029
 0.7069
     8396.50000 8.47531 88.4035 160.194 24.3716
 0.27385 0.28183 2.14814 0.09574 0.0985
 0.7713 0.6291 0.6291 0.00943 0.00374
 0.70501
     8397.00000 8.48689 88.2545 159.473 26.803
 0.26859 0.28288 2.14954 0.09493 0.0989
 0.76599 0.6296 0.6296 0.01949 0.00824
 0.68939
     8397.50000 8.47138 88.3953 159.728 26.5961
 0.25813 0.27811 2.1529 0.09733 0.1014
 0.78097 0.6328 0.6328 0.01037 0.00136
 0.71016
     8398.00000 8.46267 88.2921 159.694 26.8356
 0.25506 0.28118 2.15205 0.09926 0.1049
 0.78046 0.6371 0.6371 0.01664 0.00678
 0.6954
     8398.50000 8.46659 88.4297 160.314 24.3601
 0.25275 0.28058 2.149 0.10388 0.1094
 0.78496 0.6424 0.6424 0.00577 0.00158
 0.71208
     8399.00000 8.47882 88.583 160.604 23.8612
 0.26011 0.28263 2.14443 0.10838 0.1132
 0.7873 0.6468 0.6468 0.00417 0.00014
 0.71306
     8399.50000 8.47264 88.6779 160.164 23.5295
 0.26022 0.28343 2.14304 0.11183 0.1168
 0.79668 0.6509 0.6509 0.00249 0
 0.71408
     8400.00000 8.46557 88.627 160.228 24.8287
 0.25851 0.28253 2.14424 0.11254 0.1176
 0.80819 0.6518 0.6518 0.00331 0
 0.71416
     8400.50000 8.47923 88.4425 159.708 24.7465
 0.25388 0.28276 2.14529 0.10908 0.115
 0.80974 0.6488 0.6488 0.00479 0
 0.71245
     8401.00000 8.48125 88.2608 159.104 24.7813
 0.24556 0.27716 2.14476 0.105 0.1095
 0.80998 0.6425 0.6425 0 0
 0.72284
     8401.50000 8.47976 87.5168 159.237 24.4425
 0.2486 0.26862 2.14732 0.10309 0.104
 0.81503 0.636 0.636 0 0
 0.73138
     8402.00000 8.48866 87.7127 159.511 25.2379
 0.25111 0.26526 2.15133 0.09831 0.0982
 0.80642 0.6286 0.6286 0 0
 0.73474
     8402.50000 8.4802 87.8594 159.856 25.4927
 0.26094 0.26541 2.15771 0.09785 0.0973
 0.80358 0.6276 0.6276 0 0
 0.73459
     8403.00000 8.47876 88.5732 160.281 25.8237
 0.25648 0.2675 2.16868 0.09993 0.1023
 0.79349 0.6338 0.6338 0.00011 0
 0.73239
     8403.50000 8.46542 88.5565 160.511 24.9734
 0.25319 0.26639 2.17734 0.10313 0.1068
 0.78407 0.6393 0.6393 0.00669 0.00209
 0.72482
     8404.00000 8.45411 88.0839 160.76 25.3321
 0.25159 0.26553 2.17863 0.10613 0.1099
 0.78694 0.643 0.643 0.00661 0.00173
 0.72613
     8404.50000 8.46039 88.1247 160.128 26.4777
 0.25392 0.27577 2.16499 0.10312 0.1088
 0.78399 0.6417 0.6417 0.0175 0.00854
 0.69819
     8405.00000 8.48103 88.0699 159.755 26.738
 0.25815 0.27446 2.15158 0.1022 0.1048
 0.80711 0.6369 0.6369 0 0
 0.72554
     8405.50000 8.49435 87.7694 159.423 26.7315
 0.26197 0.28203 2.13934 0.09879 0.1021
 0.79619 0.6336 0.6336 0.00204 0
 0.71593
     8406.00000 8.48713 87.7296 159.427 25.9949
 0.26787 0.27429 2.13621 0.10449 0.1036
 0.812 0.6354 0.6354 0 0
 0.72571
     8406.50000 8.48813 87.7724 159.596 26.236
 0.26981 0.28302 2.1324 0.10804 0.1098
 0.78646 0.6429 0.6429 0 0
 0.71698
     8407.00000 8.49209 87.8494 159.209 26.7398
 0.27742 0.28184 2.13528 0.11571 0.1163
 0.79422 0.6503 0.6503 0 0
 0.71816
     8407.50000 8.48951 87.9158 159.04 26.652
 0.28233 0.28385 2.13836 0.12044 0.1216
 0.79886 0.6562 0.6562 0.00473 0
 0.71142
     8408.00000 8.48499 88.0839 159.151 27.4351
 0.27958 0.28413 2.14124 0.12241 0.1246
 0.8179 0.6593 0.6593 0.00864 0
 0.70723
     8408.50000 8.486 88.5151 159.469 27.5556
 0.26837 0.28617 2.14289 0.12033 0.1255
 0.80391 0.6603 0.6603 0.01694 0.00543
 0.69146
     8409.00000 8.48999 88.6837 160.295 27.6861
 0.25353 0.28418 2.14598 0.11786 0.1249
 0.79162 0.6597 0.6597 0.01751 0.00554
 0.69277
     8409.50000 8.49258 89.4575 161.215 26.2265
 0.25441 0.27993 2.15103 0.11536 0.1211
 0.78396 0.6555 0.6555 0.01095 0.0026
 0.70652
     8410.00000 8.49808 89.6556 161.525 26.3001
 0.25165 0.27817 2.1516 0.11162 0.1169
 0.7897 0.651 0.651 0.0071 0
 0.71473
     8410.50000 8.49619 89.4878 161.429 26.8732
 0.26167 0.28154 2.14674 0.10645 0.1108
 0.78782 0.6441 0.6441 0.01083 0.00194
 0.70569
     8411.00000 8.49337 89.38 161.512 27.6551
 0.2646 0.28447 2.14124 0.10175 0.106
 0.77794 0.6383 0.6383 0.01415 0.00331
 0.69807
     8411.50000 8.47834 89.5746 161.634 26.2349
 0.26709 0.2877 2.13894 0.09724 0.1019
 0.76681 0.6334 0.6334 0.01669 0.00781
 0.6878
     8412.00000 8.48368 89.3617 161.265 26.77
 0.26847 0.28085 2.14346 0.09478 0.0973
 0.7705 0.6275 0.6275 0.00689 0
 0.71225
     8412.50000 8.48712 89.2405 161.152 27.7778
 0.26381 0.2897 2.14189 0.08748 0.0932
 0.7471 0.6222 0.6222 0.02973 0.01678
 0.6638
